%time,field.header.seq,field.header.stamp,field.dataGood0,field.dataGood1,field.dataGood2,field.dataGood3,field.altitudeBeam0,field.altitudeBeam1,field.altitudeBeam2,field.altitudeBeam3,field.bottomVelocityBeam0,field.bottomVelocityBeam1,field.bottomVelocityBeam2,field.bottomVelocityBeam3,field.waterVelocityBeam0,field.waterVelocityBeam1,field.waterVelocityBeam2,field.waterVelocityBeam3,field.waterVelocityCredit0,field.waterVelocityCredit1,field.waterVelocityCredit2,field.waterVelocityCredit3,field.velocityInst0,field.velocityInst1,field.velocityInst2,field.velocityInstFlag,field.velocityEarth0,field.velocityEarth1,field.velocityEarth2,field.velocityEarthFlag,field.waterVelocityInst0,field.waterVelocityInst1,field.waterVelocityInst2,field.waterVelocityInstFlag,field.waterVelocityEarth0,field.waterVelocityEarth1,field.waterVelocityEarth2,field.waterVelocityEarthFlag,field.roll,field.pitch,field.heading,field.altitude,field.temperature,field.pressure,field.salinity,field.soundSpeed
1372687208632644971,1245,1372687208633787539,0,1,1,1,0.0,2.0,2.0,2.1,0.0,-0.0489,0.0848,0.0369,0.204,0.0,0.0,0.0,1.0,0.0,0.0,0.0,-0.2424,-0.1145,-0.0065,1,-0.2424,-0.1145,-0.0065,1,0.0,0.0,0.0,0,0.0,0.0,0.0,0,0.0,0.0,0.0,2.0,15.0,2853823.582,0.0,1500.0
1372687208971290655,1246,1372687208970754788,0,1,1,1,0.0,2.0,2.0,2.1,0.0,-0.8699,0.0951,0.0193,-0.24,0.0,0.0,0.0,1.0,0.0,0.0,0.0,0.0,0.0,0.0,0,0.0,0.0,0.0,0,0.0,0.0,0.0,0,0.0,0.0,0.0,0,0.0,0.0,0.0,2.0,15.0,2853823.582,0.0,1500.0
1372687209329570751,1247,1372687209332731486,0,1,1,1,0.0,2.0,2.0,2.1,0.0,-0.0426,0.0932,0.01,0.44,0.0,0.0,0.0,1.0,0.0,0.0,0.0,-0.2923,-0.0702,-0.0176,1,-0.2923,-0.0702,-0.0176,1,0.0,0.0,0.0,0,0.0,0.0,0.0,0,0.0,0.0,0.0,2.0,15.0,2853823.582,0.0,1500.0
1372687209691361155,1248,1372687209694532476,0,1,1,1,0.0,2.0,2.0,2.0,0.0,-0.0199,0.0557,0.0153,-0.555,0.0,0.0,0.0,1.0,0.0,0.0,0.0,-0.1548,-0.047,-0.0025,1,-0.1548,-0.047,-0.0025,1,0.0,0.0,0.0,0,0.0,0.0,0.0,0,0.0,0.0,0.0,2.0,15.0,2853823.582,0.0,1500.0
1372687210041359979,1249,1372687210050381762,0,1,1,1,0.0,2.0,2.0,2.0,0.0,-0.0348,0.0485,0.0335,0.581,0.0,0.0,0.0,1.0,0.0,0.0,0.0,-0.1312,-0.0912,-0.0007,1,-0.1312,-0.0912,-0.0007,1,0.0,0.0,0.0,0,0.0,0.0,0.0,0,0.0,0.0,0.0,2.0,15.0,2853823.582,0.0,1500.0
1372687210414441838,1250,1372687210415522531,0,1,1,1,0.0,2.0,2.0,2.0,0.0,-0.0192,0.0477,0.0152,-0.475,0.0,0.0,0.0,1.0,0.0,0.0,0.0,-0.1327,-0.0459,-0.0022,1,-0.1327,-0.0459,-0.0022,1,0.0,0.0,0.0,0,0.0,0.0,0.0,0,0.0,0.0,0.0,2.0,15.0,2853823.582,0.0,1500.0
1372687210774495656,1251,1372687210777928841,0,1,1,1,0.0,2.0,2.0,2.0,0.0,-0.0279,0.0353,-0.0262,-0.06,0.0,0.0,0.0,1.0,0.0,0.0,0.0,-0.1664,-0.0023,-0.0292,1,-0.1664,-0.0023,-0.0292,1,0.0,0.0,0.0,0,0.0,0.0,0.0,0,0.0,0.0,0.0,2.0,15.0,2853823.582,0.0,1500.0
1372687211122144543,1252,1372687211126857363,1,1,1,1,2.2,2.0,2.0,2.0,-0.0187,0.0023,0.0647,0.0932,0.0,0.0,0.0,0.0,0.0,0.0,0.0,0.0,-0.1113,-0.1213,0.0381,1,-0.1113,-0.1213,0.0381,1,0.0,0.0,0.0,0,0.0,0.0,0.0,0,0.0,0.0,0.0,2.0,15.0,2853823.582,0.0,1500.0
1372687211479805542,1253,1372687211484276700,0,1,1,1,0.0,2.1,2.0,2.0,0.0,0.0024,0.0823,0.0862,0.319,0.0,0.0,0.0,1.0,0.0,0.0,0.0,-0.1014,-0.1118,0.0478,1,-0.1014,-0.1118,0.0478,1,0.0,0.0,0.0,0,0.0,0.0,0.0,0,0.0,0.0,0.0,2.0,15.0,2853823.582,0.0,1500.0
1372687211836618599,1254,1372687211838203232,1,1,1,1,2.2,2.2,2.0,2.1,-0.0169,-0.0052,0.0621,0.0378,0.0,0.0,0.0,0.0,0.0,0.0,0.0,0.0,-0.1054,-0.0574,0.021,1,-0.1054,-0.0574,0.021,1,0.0,0.0,0.0,0,0.0,0.0,0.0,0,0.0,0.0,0.0,2.0,15.0,2853823.582,0.0,1500.0
1372687212186273414,1255,1372687212187703788,1,1,1,1,2.2,2.2,2.0,2.1,-0.0261,-0.006,0.0746,0.0336,0.0,0.0,0.0,0.0,0.0,0.0,0.0,0.0,-0.1344,-0.0529,0.0205,1,-0.1344,-0.0529,0.0205,1,0.0,0.0,0.0,0,0.0,0.0,0.0,0,0.0,0.0,0.0,2.0,15.0,2853823.582,0.0,1500.0
1372687212526943165,1256,1372687212528160873,1,1,1,1,2.2,2.2,2.0,2.1,-0.0511,0.0,0.0852,0.0466,0.0,0.0,0.0,0.0,0.0,0.0,0.0,0.0,-0.1819,-0.0622,0.0217,1,-0.1819,-0.0622,0.0217,1,0.0,0.0,0.0,0,0.0,0.0,0.0,0,0.0,0.0,0.0,2.0,15.0,2853823.582,0.0,1500.0
1372687212868933419,1257,1372687212873782958,1,1,1,1,2.2,2.2,2.0,2.1,0.0258,-0.0018,0.0781,0.0478,0.0,0.0,0.0,0.0,0.0,0.0,0.0,0.0,-0.0698,-0.0662,0.0404,1,-0.0698,-0.0662,0.0404,1,0.0,0.0,0.0,0,0.0,0.0,0.0,0,0.0,0.0,0.0,2.0,15.0,2853823.582,0.0,1500.0
1372687213227482077,1258,1372687213227814503,1,1,1,1,2.3,2.2,2.0,2.2,-0.0427,-0.0078,0.0929,0.0532,0.0,0.0,0.0,0.0,0.0,0.0,0.0,0.0,-0.181,-0.0814,0.0258,1,-0.181,-0.0814,0.0258,1,0.0,0.0,0.0,0,0.0,0.0,0.0,0,0.0,0.0,0.0,2.0,15.0,2853823.582,0.0,1500.0
1372687213576457146,1259,1372687213576702365,1,1,1,1,2.3,2.2,2.1,2.2,-0.0212,-0.0508,0.1052,0.0276,0.0,0.0,0.0,0.0,0.0,0.0,0.0,0.0,-0.1687,-0.1046,0.0164,1,-0.1687,-0.1046,0.0164,1,0.0,0.0,0.0,0,0.0,0.0,0.0,0,0.0,0.0,0.0,2.1,15.0,2853823.582,0.0,1500.0
1372687213929020576,1260,1372687213930816398,1,1,1,1,2.3,2.3,2.1,2.2,-0.0424,-0.0052,0.0929,0.0505,0.0,0.0,0.0,0.0,0.0,0.0,0.0,0.0,-0.1806,-0.0743,0.0258,1,-0.1806,-0.0743,0.0258,1,0.0,0.0,0.0,0,0.0,0.0,0.0,0,0.0,0.0,0.0,2.1,15.0,2853823.582,0.0,1500.0
1372687214279814751,1261,1372687214280283699,1,1,1,1,2.3,2.3,2.1,2.2,-0.0517,-0.0107,0.0934,0.0479,0.0,0.0,0.0,0.0,0.0,0.0,0.0,0.0,-0.1937,-0.0782,0.0213,1,-0.1937,-0.0782,0.0213,1,0.0,0.0,0.0,0,0.0,0.0,0.0,0,0.0,0.0,0.0,2.1,15.0,2853823.582,0.0,1500.0
1372687214620813983,1262,1372687214627721847,1,1,1,1,2.3,2.3,2.1,2.2,-0.0691,-0.0259,0.0812,0.0482,0.0,0.0,0.0,0.0,0.0,0.0,0.0,0.0,-0.2006,-0.0989,0.0092,1,-0.2006,-0.0989,0.0092,1,0.0,0.0,0.0,0,0.0,0.0,0.0,0,0.0,0.0,0.0,2.1,15.0,2853823.582,0.0,1500.0
1372687214973446247,1263,1372687214974709562,1,1,1,1,2.4,2.3,2.0,2.3,-0.0678,-0.0151,0.0952,0.0126,0.0,0.0,0.0,0.0,0.0,0.0,0.0,0.0,-0.2175,-0.037,0.0067,1,-0.2175,-0.037,0.0067,1,0.0,0.0,0.0,0,0.0,0.0,0.0,0,0.0,0.0,0.0,2.0,15.0,2853823.582,0.0,1500.0
1372687215313069586,1264,1372687215321686070,1,1,1,1,2.4,2.3,2.0,2.3,-0.0597,0.0058,0.0945,0.0164,0.0,0.0,0.0,0.0,0.0,0.0,0.0,0.0,-0.2058,-0.0141,0.0154,1,-0.2058,-0.0141,0.0154,1,0.0,0.0,0.0,0,0.0,0.0,0.0,0,0.0,0.0,0.0,2.0,15.0,2853823.582,0.0,1500.0
1372687215662462067,1265,1372687215668467149,1,1,1,1,2.4,2.2,1.9,2.3,-0.0653,-0.0067,0.0482,0.0072,0.0,0.0,0.0,0.0,0.0,0.0,0.0,0.0,-0.1515,-0.0186,-0.0045,1,-0.1515,-0.0186,-0.0045,1,0.0,0.0,0.0,0,0.0,0.0,0.0,0,0.0,0.0,0.0,1.9,15.0,2853823.582,0.0,1500.0
1372687216011964976,1266,1372687216020448633,1,1,1,1,2.4,2.2,2.0,2.3,-0.0458,-0.0329,0.1953,0.0291,0.0,0.0,0.0,0.0,0.0,0.0,0.0,0.0,-0.3218,-0.0827,0.0393,1,-0.3218,-0.0827,0.0393,1,0.0,0.0,0.0,0,0.0,0.0,0.0,0,0.0,0.0,0.0,2.0,15.0,2853823.582,0.0,1500.0
1372687216341442029,1267,1372687216343453734,1,1,1,1,2.4,2.2,1.9,2.2,-0.0982,-0.0008,-0.0421,0.0201,0.0,0.0,0.0,0.0,0.0,0.0,0.0,0.0,0.0,0.0,0.0,0,0.0,0.0,0.0,0,0.0,0.0,0.0,0,0.0,0.0,0.0,0,0.0,0.0,0.0,1.9,15.0,2853823.582,0.0,1500.0
1372687216684512071,1268,1372687216692371964,1,1,1,1,2.4,2.3,2.3,2.3,-0.0266,-0.0332,0.5646,0.0178,0.0,0.0,0.0,0.0,0.0,0.0,0.0,0.0,-0.789,-0.0681,0.1409,1,-0.789,-0.0681,0.1409,1,0.0,0.0,0.0,0,0.0,0.0,0.0,0,0.0,0.0,0.0,2.3,15.0,2853823.582,0.0,1500.0
1372687217014299522,1269,1372687217021397108,1,1,1,1,2.4,2.3,2.3,2.3,-0.0406,-0.0512,0.0508,0.0371,0.0,0.0,0.0,0.0,0.0,0.0,0.0,0.0,0.0,0.0,0.0,0,0.0,0.0,0.0,0,0.0,0.0,0.0,0,0.0,0.0,0.0,0,0.0,0.0,0.0,2.3,15.0,2853823.582,0.0,1500.0
1372687217367905880,1270,1372687217371276591,1,1,1,1,2.4,2.3,2.3,2.3,-0.0485,-0.0115,0.0452,0.0142,0.0,0.0,0.0,0.0,0.0,0.0,0.0,0.0,-0.1251,-0.0343,-0.0002,1,-0.1251,-0.0343,-0.0002,1,0.0,0.0,0.0,0,0.0,0.0,0.0,0,0.0,0.0,0.0,2.3,15.0,2853823.582,0.0,1500.0
1372687217719317285,1271,1372687217719261365,1,1,1,1,2.4,2.3,2.3,2.3,-0.0492,-0.0178,0.0649,0.0134,0.0,0.0,0.0,0.0,0.0,0.0,0.0,0.0,-0.1523,-0.0416,0.003,1,-0.1523,-0.0416,0.003,1,0.0,0.0,0.0,0,0.0,0.0,0.0,0,0.0,0.0,0.0,2.3,15.0,2853823.582,0.0,1500.0
1372687218068067967,1272,1372687218068718176,1,1,1,1,2.4,2.3,2.4,2.3,-0.0298,-0.0015,0.0524,0.0247,0.0,0.0,0.0,0.0,0.0,0.0,0.0,0.0,-0.1097,-0.035,0.0123,1,-0.1097,-0.035,0.0123,1,0.0,0.0,0.0,0,0.0,0.0,0.0,0,0.0,0.0,0.0,2.3,15.0,2853823.582,0.0,1500.0
1372687218416354594,1273,1372687218422023842,1,1,1,1,2.4,2.3,2.4,2.3,-0.0301,-0.0126,0.0763,0.1568,0.0,0.0,0.0,0.0,0.0,0.0,0.0,0.0,-0.142,-0.2261,0.0513,1,-0.142,-0.2261,0.0513,1,0.0,0.0,0.0,0,0.0,0.0,0.0,0,0.0,0.0,0.0,2.3,15.0,2853823.582,0.0,1500.0
1372687218757822964,1274,1372687218763151237,1,1,1,1,2.4,2.3,2.4,2.3,-0.0286,-0.0045,0.0429,0.0262,0.0,0.0,0.0,0.0,0.0,0.0,0.0,0.0,-0.0954,-0.041,0.0097,1,-0.0954,-0.041,0.0097,1,0.0,0.0,0.0,0,0.0,0.0,0.0,0,0.0,0.0,0.0,2.3,15.0,2853823.582,0.0,1500.0
1372687219120844824,1275,1372687219121915169,1,1,1,1,2.4,2.4,2.4,2.4,-0.0368,-0.0117,0.1616,0.0213,0.0,0.0,0.0,0.0,0.0,0.0,0.0,0.0,-0.2648,-0.044,0.0362,1,-0.2648,-0.044,0.0362,1,0.0,0.0,0.0,0,0.0,0.0,0.0,0,0.0,0.0,0.0,2.4,15.0,2853823.582,0.0,1500.0
1372687219462371568,1276,1372687219469427278,1,1,1,1,2.4,2.4,2.4,2.4,-0.0831,-0.0047,0.0544,0.0183,0.0,0.0,0.0,0.0,0.0,0.0,0.0,0.0,-0.1835,-0.0307,-0.0041,1,-0.1835,-0.0307,-0.0041,1,0.0,0.0,0.0,0,0.0,0.0,0.0,0,0.0,0.0,0.0,2.4,15.0,2853823.582,0.0,1500.0
1372687219814420059,1277,1372687219813631791,1,1,1,1,2.4,2.3,2.4,2.4,-0.0287,0.0271,0.0441,0.0263,0.0,0.0,0.0,0.0,0.0,0.0,0.0,0.0,-0.0972,0.0011,0.0185,1,-0.0972,0.0011,0.0185,1,0.0,0.0,0.0,0,0.0,0.0,0.0,0,0.0,0.0,0.0,2.3,15.0,2853823.582,0.0,1500.0
1372687220163926850,1278,1372687220163395486,1,1,1,1,2.3,2.4,2.4,2.4,-0.0337,0.008,0.1379,0.0203,0.0,0.0,0.0,0.0,0.0,0.0,0.0,0.0,-0.229,-0.0164,0.0357,1,-0.229,-0.0164,0.0357,1,0.0,0.0,0.0,0,0.0,0.0,0.0,0,0.0,0.0,0.0,2.3,15.0,2853823.582,0.0,1500.0
1372687220513046132,1279,1372687220513619372,1,1,1,1,2.4,2.3,2.4,2.5,-0.014,-0.0001,-0.2387,0.1125,0.0,0.0,0.0,0.0,0.0,0.0,0.0,0.0,0.2999,-0.1503,-0.0379,1,0.2999,-0.1503,-0.0379,1,0.0,0.0,0.0,0,0.0,0.0,0.0,0,0.0,0.0,0.0,2.3,15.0,2853823.582,0.0,1500.0
1372687220833480657,1280,1372687220841440972,1,1,1,1,2.4,2.3,2.4,2.4,-0.0186,-0.0071,0.036,0.0363,0.0,0.0,0.0,0.0,0.0,0.0,0.0,0.0,0.0,0.0,0.0,0,0.0,0.0,0.0,0,0.0,0.0,0.0,0,0.0,0.0,0.0,0,0.0,0.0,0.0,2.3,15.0,2853823.582,0.0,1500.0
1372687221192394718,1281,1372687221191293929,1,1,1,1,2.4,2.5,2.4,2.4,-0.0151,-0.0108,0.0626,0.0366,0.0,0.0,0.0,0.0,0.0,0.0,0.0,0.0,-0.1037,-0.0633,0.0197,1,-0.1037,-0.0633,0.0197,1,0.0,0.0,0.0,0,0.0,0.0,0.0,0,0.0,0.0,0.0,2.4,15.0,2853823.582,0.0,1500.0
1372687221545753763,1282,1372687221544402664,1,1,1,1,2.4,2.5,2.5,2.3,-0.0423,0.0265,0.0748,0.0376,0.0,0.0,0.0,0.0,0.0,0.0,0.0,0.0,-0.1563,-0.0148,0.026,1,-0.1563,-0.0148,0.026,1,0.0,0.0,0.0,0,0.0,0.0,0.0,0,0.0,0.0,0.0,2.3,15.0,2853823.582,0.0,1500.0
1372687221885342537,1283,1372687221889724077,1,1,1,1,2.4,2.5,2.4,2.4,-0.0363,0.0448,0.0658,0.032,0.0,0.0,0.0,0.0,0.0,0.0,0.0,0.0,-0.1363,0.0171,0.0286,1,-0.1363,0.0171,0.0286,1,0.0,0.0,0.0,0,0.0,0.0,0.0,0,0.0,0.0,0.0,2.4,15.0,2853823.582,0.0,1500.0
1372687222236636553,1284,1372687222239862263,1,1,1,1,2.4,2.5,2.4,2.4,-0.0352,-0.0073,0.0773,0.025,0.0,0.0,0.0,0.0,0.0,0.0,0.0,0.0,-0.1501,-0.0431,0.0161,1,-0.1501,-0.0431,0.0161,1,0.0,0.0,0.0,0,0.0,0.0,0.0,0,0.0,0.0,0.0,2.4,15.0,2853823.582,0.0,1500.0
1372687222587009185,1285,1372687222587971043,1,1,1,1,2.4,2.5,2.4,2.4,-0.0851,0.0243,0.0715,0.0274,0.0,0.0,0.0,0.0,0.0,0.0,0.0,0.0,-0.209,-0.0041,0.0103,1,-0.209,-0.0041,0.0103,1,0.0,0.0,0.0,0,0.0,0.0,0.0,0,0.0,0.0,0.0,2.4,15.0,2853823.582,0.0,1500.0
1372687222936930461,1286,1372687222938537422,1,1,1,1,2.4,2.5,2.4,2.4,-0.074,0.013,0.077,0.0511,0.0,0.0,0.0,0.0,0.0,0.0,0.0,0.0,-0.2015,-0.0508,0.0181,1,-0.2015,-0.0508,0.0181,1,0.0,0.0,0.0,0,0.0,0.0,0.0,0,0.0,0.0,0.0,2.4,15.0,2853823.582,0.0,1500.0
1372687223280039965,1287,1372687223286704412,1,1,1,1,2.4,2.5,2.4,2.3,-0.0818,-0.0046,0.0894,0.0188,0.0,0.0,0.0,0.0,0.0,0.0,0.0,0.0,-0.2285,-0.0312,0.0059,1,-0.2285,-0.0312,0.0059,1,0.0,0.0,0.0,0,0.0,0.0,0.0,0,0.0,0.0,0.0,2.3,15.0,2853823.582,0.0,1500.0
1372687223629904320,1288,1372687223637517051,1,1,1,1,2.4,2.5,2.4,2.3,-0.0293,-0.0101,0.0944,0.0076,0.0,0.0,0.0,0.0,0.0,0.0,0.0,0.0,-0.1651,-0.0236,0.0169,1,-0.1651,-0.0236,0.0169,1,0.0,0.0,0.0,0,0.0,0.0,0.0,0,0.0,0.0,0.0,2.3,15.0,2853823.582,0.0,1500.0
1372687223980578145,1289,1372687223984658248,1,1,1,1,2.4,2.5,2.4,2.4,0.0203,-0.0108,0.0655,0.012,0.0,0.0,0.0,0.0,0.0,0.0,0.0,0.0,-0.0603,-0.0304,0.0234,1,-0.0603,-0.0304,0.0234,1,0.0,0.0,0.0,0,0.0,0.0,0.0,0,0.0,0.0,0.0,2.4,15.0,2853823.582,0.0,1500.0
1372687224329649916,1290,1372687224335037486,1,1,1,1,2.4,2.5,2.5,2.3,-0.0824,0.0018,0.1,0.0201,0.0,0.0,0.0,0.0,0.0,0.0,0.0,0.0,-0.2434,-0.0244,0.0106,1,-0.2434,-0.0244,0.0106,1,0.0,0.0,0.0,0,0.0,0.0,0.0,0,0.0,0.0,0.0,2.3,15.0,2853823.582,0.0,1500.0
1372687224682828748,1291,1372687224685234567,1,1,1,1,2.1,2.5,2.5,2.3,-0.0711,0.0124,0.1193,0.0309,0.0,0.0,0.0,0.0,0.0,0.0,0.0,0.0,-0.2541,-0.0247,0.0247,1,-0.2541,-0.0247,0.0247,1,0.0,0.0,0.0,0,0.0,0.0,0.0,0,0.0,0.0,0.0,2.1,15.0,2853823.582,0.0,1500.0
1372687225034238630,1292,1372687225033003547,1,1,1,1,2.0,2.5,2.5,2.3,0.024,0.0334,0.1212,0.0406,0.0,0.0,0.0,0.0,0.0,0.0,0.0,0.0,-0.1297,-0.0096,0.0591,1,-0.1297,-0.0096,0.0591,1,0.0,0.0,0.0,0,0.0,0.0,0.0,0,0.0,0.0,0.0,2.0,15.0,2853823.582,0.0,1500.0
1372687225374798168,1293,1372687225380716120,1,1,1,1,2.0,2.5,2.5,2.3,-0.0364,0.0661,0.1237,0.0418,0.0,0.0,0.0,0.0,0.0,0.0,0.0,0.0,-0.2137,0.0324,0.0526,1,-0.2137,0.0324,0.0526,1,0.0,0.0,0.0,0,0.0,0.0,0.0,0,0.0,0.0,0.0,2.0,15.0,2853823.582,0.0,1500.0
1372687225723574077,1294,1372687225730172014,1,1,1,1,1.9,2.5,2.5,2.4,-0.0668,0.0249,0.1255,0.0423,0.0,0.0,0.0,0.0,0.0,0.0,0.0,0.0,-0.2567,-0.0232,0.0339,1,-0.2567,-0.0232,0.0339,1,0.0,0.0,0.0,0,0.0,0.0,0.0,0,0.0,0.0,0.0,1.9,15.0,2853823.582,0.0,1500.0
1372687226072160432,1295,1372687226078259231,1,1,1,1,1.9,2.5,2.5,2.4,-0.0544,0.0385,0.1309,0.0388,0.0,0.0,0.0,0.0,0.0,0.0,0.0,0.0,-0.2473,-0.0004,0.0415,1,-0.2473,-0.0004,0.0415,1,0.0,0.0,0.0,0,0.0,0.0,0.0,0,0.0,0.0,0.0,1.9,15.0,2853823.582,0.0,1500.0
1372687226422459065,1296,1372687226427879536,1,1,1,1,1.8,2.5,2.5,2.4,-0.0745,0.0291,0.1283,0.1765,0.0,0.0,0.0,0.0,0.0,0.0,0.0,0.0,-0.2707,-0.1967,0.0699,1,-0.2707,-0.1967,0.0699,1,0.0,0.0,0.0,0,0.0,0.0,0.0,0,0.0,0.0,0.0,1.8,15.0,2853823.582,0.0,1500.0
1372687226752016777,1297,1372687226758785013,1,1,1,1,1.8,2.5,2.5,2.1,-0.0839,0.0317,0.1589,-0.4022,0.0,0.0,0.0,0.0,0.0,0.0,0.0,0.0,0.0,0.0,0.0,0,0.0,0.0,0.0,0,0.0,0.0,0.0,0,0.0,0.0,0.0,0,0.0,0.0,0.0,1.8,15.0,2853823.582,0.0,1500.0
1372687227101846400,1298,1372687227106526421,1,1,1,1,1.8,2.5,2.5,1.9,-0.0988,0.0156,0.1434,0.0192,0.0,0.0,0.0,0.0,0.0,0.0,0.0,0.0,-0.3232,-0.0048,0.0214,1,-0.3232,-0.0048,0.0214,1,0.0,0.0,0.0,0,0.0,0.0,0.0,0,0.0,0.0,0.0,1.8,15.0,2853823.582,0.0,1500.0
1372687227453100823,1299,1372687227455710837,1,1,1,1,1.7,2.6,2.5,1.9,-0.1023,-0.0213,0.1162,0.0077,0.0,0.0,0.0,0.0,0.0,0.0,0.0,0.0,-0.2916,-0.0387,0.0001,1,-0.2916,-0.0387,0.0001,1,0.0,0.0,0.0,0,0.0,0.0,0.0,0,0.0,0.0,0.0,1.7,15.0,2853823.582,0.0,1500.0
1372687227804046281,1300,1372687227803962307,1,1,1,1,1.7,2.6,2.5,1.8,-0.1354,-0.0555,0.0997,-0.0107,0.0,0.0,0.0,0.0,0.0,0.0,0.0,0.0,-0.3138,-0.0598,-0.0275,1,-0.3138,-0.0598,-0.0275,1,0.0,0.0,0.0,0,0.0,0.0,0.0,0,0.0,0.0,0.0,1.7,15.0,2853823.582,0.0,1500.0
1372687228156424569,1301,1372687228160125207,1,1,1,1,1.6,2.6,2.5,1.8,-0.1155,0.1812,0.1092,-0.0008,0.0,0.0,0.0,0.0,0.0,0.0,0.0,0.0,-0.2999,0.2429,0.0469,1,-0.2999,0.2429,0.0469,1,0.0,0.0,0.0,0,0.0,0.0,0.0,0,0.0,0.0,0.0,1.6,15.0,2853823.582,0.0,1500.0
1372687228506401417,1302,1372687228509237773,1,1,1,1,1.6,2.5,2.5,1.8,-0.1305,0.0731,0.1049,-0.0188,0.0,0.0,0.0,0.0,0.0,0.0,0.0,0.0,-0.3142,0.1227,0.0077,1,-0.3142,0.1227,0.0077,1,0.0,0.0,0.0,0,0.0,0.0,0.0,0,0.0,0.0,0.0,1.6,15.0,2853823.582,0.0,1500.0
1372687228857260743,1303,1372687228865005015,1,1,1,1,1.5,2.5,2.5,1.7,-0.0297,-0.108,0.1166,-0.015,0.0,0.0,0.0,0.0,0.0,0.0,0.0,0.0,-0.1953,-0.1241,-0.0097,1,-0.1953,-0.1241,-0.0097,1,0.0,0.0,0.0,0,0.0,0.0,0.0,0,0.0,0.0,0.0,1.5,15.0,2853823.582,0.0,1500.0
1372687229197289902,1304,1372687229205807383,1,1,1,1,1.5,2.4,2.5,1.6,-0.1125,0.0282,0.1135,0.0024,0.0,0.0,0.0,0.0,0.0,0.0,0.0,0.0,-0.3016,0.0344,0.0085,1,-0.3016,0.0344,0.0085,1,0.0,0.0,0.0,0,0.0,0.0,0.0,0,0.0,0.0,0.0,1.5,15.0,2853823.582,0.0,1500.0
1372687229559034622,1305,1372687229557896039,1,1,1,1,1.5,2.5,2.5,1.6,-0.0958,0.0106,0.0966,-0.0285,0.0,0.0,0.0,0.0,0.0,0.0,0.0,0.0,-0.2568,0.0522,-0.0047,1,-0.2568,0.0522,-0.0047,1,0.0,0.0,0.0,0,0.0,0.0,0.0,0,0.0,0.0,0.0,1.5,15.0,2853823.582,0.0,1500.0
1372687229898594743,1306,1372687229899187484,1,1,1,1,1.5,2.5,2.5,1.5,-0.0885,0.0079,0.1138,0.0018,0.0,0.0,0.0,0.0,0.0,0.0,0.0,0.0,-0.27,0.0081,0.0094,1,-0.27,0.0081,0.0094,1,0.0,0.0,0.0,0,0.0,0.0,0.0,0,0.0,0.0,0.0,1.5,15.0,2853823.582,0.0,1500.0
1372687230247513178,1307,1372687230246513173,1,1,1,1,1.4,2.5,2.5,1.5,-0.0617,0.017,0.1219,0.0088,0.0,0.0,0.0,0.0,0.0,0.0,0.0,0.0,-0.245,0.0109,0.0232,1,-0.245,0.0109,0.0232,1,0.0,0.0,0.0,0,0.0,0.0,0.0,0,0.0,0.0,0.0,1.4,15.0,2853823.582,0.0,1500.0
1372687230591562849,1308,1372687230593917503,1,1,1,1,1.4,2.5,2.5,1.5,-0.0782,0.0482,0.1468,0.0227,0.0,0.0,0.0,0.0,0.0,0.0,0.0,0.0,-0.3003,0.034,0.0376,1,-0.3003,0.034,0.0376,1,0.0,0.0,0.0,0,0.0,0.0,0.0,0,0.0,0.0,0.0,1.4,15.0,2853823.582,0.0,1500.0
1372687230930194537,1309,1372687230934860410,1,1,1,1,1.4,2.5,2.5,1.5,-0.0807,0.0516,0.1647,0.0449,0.0,0.0,0.0,0.0,0.0,0.0,0.0,0.0,-0.3275,0.0089,0.0486,1,-0.3275,0.0089,0.0486,1,0.0,0.0,0.0,0,0.0,0.0,0.0,0,0.0,0.0,0.0,1.4,15.0,2853823.582,0.0,1500.0
1372687231280348068,1310,1372687231280442577,1,1,1,1,1.5,2.5,2.2,1.5,-0.0923,0.0169,0.0979,-0.0067,0.0,0.0,0.0,0.0,0.0,0.0,0.0,0.0,-0.2538,0.0315,0.0042,1,-0.2538,0.0315,0.0042,1,0.0,0.0,0.0,0,0.0,0.0,0.0,0,0.0,0.0,0.0,1.5,15.0,2853823.582,0.0,1500.0
1372687231639681971,1311,1372687231645779494,1,0,1,1,1.6,0.0,2.0,1.4,-0.0696,0.0,0.1239,0.0086,0.0,-0.4,0.0,0.0,0.0,1.0,0.0,0.0,-0.2583,0.0495,0.0293,1,-0.2583,0.0495,0.0293,1,0.0,0.0,0.0,0,0.0,0.0,0.0,0,0.0,0.0,0.0,1.4,15.0,2853823.582,0.0,1500.0
1372687231998878722,1312,1372687232002555951,1,0,1,1,2.1,0.0,1.8,1.4,-0.0941,0.0,0.1136,-0.0047,0.0,0.356,0.0,0.0,0.0,1.0,0.0,0.0,-0.2772,0.0386,0.0105,1,-0.2772,0.0386,0.0105,1,0.0,0.0,0.0,0,0.0,0.0,0.0,0,0.0,0.0,0.0,1.4,15.0,2853823.582,0.0,1500.0
1372687232358458126,1313,1372687232357146169,1,1,1,1,2.4,2.4,1.7,1.5,-0.1271,0.1245,0.1898,-0.0192,0.0,0.0,0.0,0.0,0.0,0.0,0.0,0.0,-0.4229,0.1918,0.0453,1,-0.4229,0.1918,0.0453,1,0.0,0.0,0.0,0,0.0,0.0,0.0,0,0.0,0.0,0.0,1.5,15.0,2853823.582,0.0,1500.0
1372687232711357302,1314,1372687232718549728,0,1,1,1,0.0,2.0,1.6,1.7,0.0,0.0241,0.1612,-0.0053,-0.412,0.0,0.0,0.0,1.0,0.0,0.0,0.0,-0.4052,0.0392,0.0101,1,-0.4052,0.0392,0.0101,1,0.0,0.0,0.0,0,0.0,0.0,0.0,0,0.0,0.0,0.0,1.6,15.0,2853823.582,0.0,1500.0
1372687233071201447,1315,1372687233076241281,1,1,1,1,2.5,2.1,1.5,2.3,-0.1403,0.2095,0.1459,-0.0108,0.0,0.0,0.0,0.0,0.0,0.0,0.0,0.0,-0.382,0.294,0.0551,1,-0.382,0.294,0.0551,1,0.0,0.0,0.0,0,0.0,0.0,0.0,0,0.0,0.0,0.0,1.5,15.0,2853823.582,0.0,1500.0
1372687233401503215,1316,1372687233402252238,1,1,1,1,2.2,2.1,1.4,2.4,-0.0521,-0.0819,0.1214,-0.047,0.0,0.0,0.0,0.0,0.0,0.0,0.0,0.0,0.0,0.0,0.0,0,0.0,0.0,0.0,0,0.0,0.0,0.0,0,0.0,0.0,0.0,0,0.0,0.0,0.0,1.4,15.0,2853823.582,0.0,1500.0
1372687233762653557,1317,1372687233762332374,1,1,1,1,2.1,2.2,1.4,2.4,-0.1232,-0.363,0.1279,-0.0133,0.0,0.0,0.0,0.0,0.0,0.0,0.0,0.0,-0.3351,-0.4667,-0.1002,1,-0.3351,-0.4667,-0.1002,1,0.0,0.0,0.0,0,0.0,0.0,0.0,0,0.0,0.0,0.0,1.4,15.0,2853823.582,0.0,1500.0
1372687234094076756,1318,1372687234099264075,1,1,1,0,2.0,2.0,1.4,0.0,-0.0645,-0.0045,0.1341,0.0,0.0,0.0,0.0,-0.256,0.0,0.0,0.0,1.0,0.0,0.0,0.0,0,0.0,0.0,0.0,0,0.0,0.0,0.0,0,0.0,0.0,0.0,0,0.0,0.0,0.0,1.4,15.0,2853823.582,0.0,1500.0
1372687234445408537,1319,1372687234451924401,1,1,1,1,1.9,2.0,1.5,2.0,-0.1388,0.1945,0.1258,-0.0041,0.0,0.0,0.0,0.0,0.0,0.0,0.0,0.0,-0.3531,0.2651,0.0478,1,-0.3531,0.2651,0.0478,1,0.0,0.0,0.0,0,0.0,0.0,0.0,0,0.0,0.0,0.0,1.5,15.0,2853823.582,0.0,1500.0
1372687234796827083,1320,1372687234801237049,1,1,1,1,1.9,2.0,1.5,1.9,-0.1078,-0.0221,0.1444,0.0194,0.0,0.0,0.0,0.0,0.0,0.0,0.0,0.0,-0.3366,-0.0554,0.0091,1,-0.3366,-0.0554,0.0091,1,0.0,0.0,0.0,0,0.0,0.0,0.0,0,0.0,0.0,0.0,1.5,15.0,2853823.582,0.0,1500.0
1372687235146145215,1321,1372687235153162827,1,1,1,1,1.9,2.0,1.6,1.9,-0.042,0.1062,0.2166,0.0139,0.0,0.0,0.0,0.0,0.0,0.0,0.0,0.0,-0.3451,0.1232,0.0795,1,-0.3451,0.1232,0.0795,1,0.0,0.0,0.0,0,0.0,0.0,0.0,0,0.0,0.0,0.0,1.6,15.0,2853823.582,0.0,1500.0
1372687235496630526,1322,1372687235502728599,1,1,1,1,2.3,2.3,1.7,1.9,0.1297,-0.331,0.1768,0.0341,0.0,0.0,0.0,0.0,0.0,0.0,0.0,0.0,-0.0629,-0.4873,0.0026,1,-0.0629,-0.4873,0.0026,1,0.0,0.0,0.0,0,0.0,0.0,0.0,0,0.0,0.0,0.0,1.7,15.0,2853823.582,0.0,1500.0
1372687235845080782,1323,1372687235854131594,1,1,1,1,2.3,2.5,2.5,1.9,-0.1588,-0.0358,0.1471,0.0319,0.0,0.0,0.0,0.0,0.0,0.0,0.0,0.0,-0.4083,-0.0904,-0.0042,1,-0.4083,-0.0904,-0.0042,1,0.0,0.0,0.0,0,0.0,0.0,0.0,0,0.0,0.0,0.0,1.9,15.0,2853823.582,0.0,1500.0
1372687236202575493,1324,1372687236205964824,1,1,1,1,2.3,2.5,2.5,1.9,-0.1271,-0.0533,0.2209,0.0055,0.0,0.0,0.0,0.0,0.0,0.0,0.0,0.0,-0.4645,-0.0785,0.0124,1,-0.4645,-0.0785,0.0124,1,0.0,0.0,0.0,0,0.0,0.0,0.0,0,0.0,0.0,0.0,1.9,15.0,2853823.582,0.0,1500.0
1372687236529275605,1325,1372687236531999450,1,1,1,1,2.3,2.5,2.4,1.9,-0.1943,0.0065,-0.0837,-0.7417,0.0,0.0,0.0,0.0,0.0,0.0,0.0,0.0,0.0,0.0,0.0,0,0.0,0.0,0.0,0,0.0,0.0,0.0,0,0.0,0.0,0.0,0,0.0,0.0,0.0,1.9,15.0,2853823.582,0.0,1500.0
1372687236880544847,1326,1372687236881498192,1,1,1,1,2.2,2.5,2.5,2.2,-0.1323,-0.0026,0.0695,0.0621,0.0,0.0,0.0,0.0,0.0,0.0,0.0,0.0,-0.2693,-0.0864,-0.0009,1,-0.2693,-0.0864,-0.0009,1,0.0,0.0,0.0,0,0.0,0.0,0.0,0,0.0,0.0,0.0,2.2,15.0,2853823.582,0.0,1500.0
1372687237229468023,1327,1372687237237790617,1,1,1,1,2.2,2.5,2.5,2.3,-0.1511,0.017,-0.1201,-0.2726,0.0,0.0,0.0,0.0,0.0,0.0,0.0,0.0,-0.0414,0.3865,-0.142,1,-0.0414,0.3865,-0.142,1,0.0,0.0,0.0,0,0.0,0.0,0.0,0,0.0,0.0,0.0,2.2,15.0,2853823.582,0.0,1500.0
1372687237590873710,1328,1372687237585232630,1,1,1,1,2.2,2.5,2.5,2.2,-0.1541,0.0543,0.1151,-0.0022,0.0,0.0,0.0,0.0,0.0,0.0,0.0,0.0,-0.3593,0.0754,0.0035,1,-0.3593,0.0754,0.0035,1,0.0,0.0,0.0,0,0.0,0.0,0.0,0,0.0,0.0,0.0,2.2,15.0,2853823.582,0.0,1500.0
1372687237912522356,1329,1372687237911592657,1,1,1,1,2.4,2.5,2.5,2.1,-0.1404,0.0397,0.6397,0.0561,0.0,0.0,0.0,0.0,0.0,0.0,0.0,0.0,0.0,0.0,0.0,0,0.0,0.0,0.0,0,0.0,0.0,0.0,0,0.0,0.0,0.0,0,0.0,0.0,0.0,2.1,15.0,2853823.582,0.0,1500.0
1372687238262371436,1330,1372687238262897811,1,1,1,1,2.3,2.6,2.0,2.2,-0.0738,-0.0448,0.1237,-0.0582,0.0,0.0,0.0,0.0,0.0,0.0,0.0,0.0,-0.2636,0.0179,-0.0143,1,-0.2636,0.0179,-0.0143,1,0.0,0.0,0.0,0,0.0,0.0,0.0,0,0.0,0.0,0.0,2.0,15.0,2853823.582,0.0,1500.0
1372687238581650480,1331,1372687238587025329,1,1,1,1,2.3,2.5,1.9,2.3,-0.1535,0.5233,0.1828,1.0188,0.0,0.0,0.0,0.0,0.0,0.0,0.0,0.0,0.0,0.0,0.0,0,0.0,0.0,0.0,0,0.0,0.0,0.0,0,0.0,0.0,0.0,0,0.0,0.0,0.0,1.9,15.0,2853823.582,0.0,1500.0
1372687238956197685,1332,1372687238957233564,0,1,1,1,0.0,1.6,1.9,2.0,0.0,-0.0666,0.1063,-0.0437,-0.169,0.0,0.0,0.0,1.0,0.0,0.0,0.0,-0.431,-0.0306,-0.0595,1,-0.431,-0.0306,-0.0595,1,0.0,0.0,0.0,0,0.0,0.0,0.0,0,0.0,0.0,0.0,1.6,15.0,2853823.582,0.0,1500.0
1372687239285877457,1333,1372687239294504592,1,0,1,1,2.1,0.0,2.0,2.0,-0.4758,0.0,0.1127,-0.0411,0.0,0.211,0.0,0.0,0.0,1.0,0.0,0.0,0.0,0.0,0.0,0,0.0,0.0,0.0,0,0.0,0.0,0.0,0,0.0,0.0,0.0,0,0.0,0.0,0.0,2.0,15.0,2853823.582,0.0,1500.0
1372687239655748597,1334,1372687239660229129,1,0,1,1,2.0,0.0,2.1,2.0,-0.1012,0.0,0.2083,-0.1026,0.0,-0.434,0.0,0.0,0.0,1.0,0.0,0.0,-0.4131,0.4168,0.0578,1,-0.4131,0.4168,0.0578,1,0.0,0.0,0.0,0,0.0,0.0,0.0,0,0.0,0.0,0.0,2.0,15.0,2853823.582,0.0,1500.0
1372687239977767918,1335,1372687239986212710,1,1,1,1,2.1,1.5,2.0,2.0,-0.1464,0.0164,0.1365,0.0398,0.0,0.0,0.0,0.0,0.0,0.0,0.0,0.0,0.0,0.0,0.0,0,0.0,0.0,0.0,0,0.0,0.0,0.0,0,0.0,0.0,0.0,0,0.0,0.0,0.0,1.5,15.0,2853823.582,0.0,1500.0
1372687240327332987,1336,1372687240333952005,1,1,1,1,2.0,1.4,2.1,2.0,0.216,0.0017,0.1659,0.0449,0.0,0.0,0.0,0.0,0.0,0.0,0.0,0.0,0.0669,-0.0577,0.1155,1,0.0669,-0.0577,0.1155,1,0.0,0.0,0.0,0,0.0,0.0,0.0,0,0.0,0.0,0.0,1.4,15.0,2853823.582,0.0,1500.0
1372687240659449289,1337,1372687240660164434,1,1,1,1,2.0,1.3,2.2,2.0,-0.0994,-0.0007,0.1753,-0.0516,0.0,0.0,0.0,0.0,0.0,0.0,0.0,0.0,0.0,0.0,0.0,0,0.0,0.0,0.0,0,0.0,0.0,0.0,0,0.0,0.0,0.0,0,0.0,0.0,0.0,1.3,15.0,2853823.582,0.0,1500.0
1372687241019988324,1338,1372687241025504606,1,1,0,1,2.0,1.3,0.0,1.9,-0.0666,0.0261,0.0,0.8921,0.0,0.0,0.084,0.0,0.0,0.0,1.0,0.0,-1.4032,-1.1558,0.4952,1,-1.4032,-1.1558,0.4952,1,0.0,0.0,0.0,0,0.0,0.0,0.0,0,0.0,0.0,0.0,1.3,15.0,2853823.582,0.0,1500.0
1372687241360927808,1339,1372687241366959508,1,1,0,1,1.9,1.4,0.0,2.0,-0.1988,0.0104,0.0,-0.1098,0.0,0.0,0.411,0.0,0.0,0.0,1.0,0.0,0.0,0.0,0.0,0,0.0,0.0,0.0,0,0.0,0.0,0.0,0,0.0,0.0,0.0,0,0.0,0.0,0.0,1.4,15.0,2853823.582,0.0,1500.0
1372687241723152767,1340,1372687241728917483,1,1,0,1,1.9,1.6,0.0,2.1,-0.1547,0.0383,0.0,0.0608,0.0,0.0,0.251,0.0,0.0,0.0,1.0,0.0,-0.5452,-0.03,0.0534,1,-0.5452,-0.03,0.0534,1,0.0,0.0,0.0,0,0.0,0.0,0.0,0,0.0,0.0,0.0,1.6,15.0,2853823.582,0.0,1500.0
1372687242056195816,1341,1372687242058306600,1,1,0,1,1.9,1.7,0.0,2.2,-0.0007,-0.0009,0.0,-0.0576,0.0,0.0,0.059,0.0,0.0,0.0,1.0,0.0,0.0,0.0,0.0,0,0.0,0.0,0.0,0,0.0,0.0,0.0,0,0.0,0.0,0.0,0,0.0,0.0,0.0,1.7,15.0,2853823.582,0.0,1500.0
1372687242402747148,1342,1372687242412034420,1,1,1,1,1.9,2.4,2.5,1.9,-0.1952,0.0186,0.1166,-0.0909,0.0,0.0,0.0,0.0,0.0,0.0,0.0,0.0,-0.4161,0.1461,-0.0407,1,-0.4161,0.1461,-0.0407,1,0.0,0.0,0.0,0,0.0,0.0,0.0,0,0.0,0.0,0.0,1.9,15.0,2853823.582,0.0,1500.0
1372687242769037493,1343,1372687242774197092,1,1,1,1,1.9,2.4,2.4,1.9,-0.1908,-0.1996,0.1587,0.0126,0.0,0.0,0.0,0.0,0.0,0.0,0.0,0.0,-0.4665,-0.2832,-0.0591,1,-0.4665,-0.2832,-0.0591,1,0.0,0.0,0.0,0,0.0,0.0,0.0,0,0.0,0.0,0.0,1.9,15.0,2853823.582,0.0,1500.0
1372687243100253075,1344,1372687243099122871,1,1,1,1,2.0,2.2,2.3,1.9,-0.1049,0.0647,0.1421,-0.0088,0.0,0.0,0.0,0.0,0.0,0.0,0.0,0.0,0.0,0.0,0.0,0,0.0,0.0,0.0,0,0.0,0.0,0.0,0,0.0,0.0,0.0,0,0.0,0.0,0.0,1.9,15.0,2853823.582,0.0,1500.0
1372687243450400138,1345,1372687243449903526,1,1,1,1,1.9,2.2,2.3,1.8,-0.0743,-0.0064,0.1646,0.0562,0.0,0.0,0.0,0.0,0.0,0.0,0.0,0.0,-0.3188,-0.0835,0.0378,1,-0.3188,-0.0835,0.0378,1,0.0,0.0,0.0,0,0.0,0.0,0.0,0,0.0,0.0,0.0,1.8,15.0,2853823.582,0.0,1500.0
1372687243801846002,1346,1372687243800682618,1,1,1,1,1.9,2.2,2.3,1.8,-0.1166,0.0494,0.1688,0.0913,0.0,0.0,0.0,0.0,0.0,0.0,0.0,0.0,-0.3809,-0.0559,0.052,1,-0.3809,-0.0559,0.052,1,0.0,0.0,0.0,0,0.0,0.0,0.0,0,0.0,0.0,0.0,1.8,15.0,2853823.582,0.0,1500.0
1372687244152445092,1347,1372687244156023510,1,1,1,1,1.9,2.2,2.3,1.8,-0.1089,-0.0279,0.1501,-0.36,0.0,0.0,0.0,0.0,0.0,0.0,0.0,0.0,-0.3457,0.4432,-0.0935,1,-0.3457,0.4432,-0.0935,1,0.0,0.0,0.0,0,0.0,0.0,0.0,0,0.0,0.0,0.0,1.8,15.0,2853823.582,0.0,1500.0
1372687244494675844,1348,1372687244492628544,1,1,0,1,1.9,2.1,0.0,1.8,-0.1087,0.0287,0.0,0.0284,0.0,0.0,0.194,0.0,0.0,0.0,1.0,0.0,0.0,0.0,0.0,0,0.0,0.0,0.0,0,0.0,0.0,0.0,0,0.0,0.0,0.0,0,0.0,0.0,0.0,1.8,15.0,2853823.582,0.0,1500.0
1372687244844616134,1349,1372687244842518104,1,1,0,0,0.9,2.1,0.0,0.0,-0.1072,0.0024,0.0,0.0,0.0,0.0,-0.079,-0.096,0.0,0.0,1.0,1.0,0.0,0.0,0.0,0,0.0,0.0,0.0,0,0.0,0.0,0.0,0,0.0,0.0,0.0,0,0.0,0.0,0.0,-2.0,15.0,2853823.582,0.0,1500.0
1372687245185118940,1350,1372687245191961983,1,1,1,1,0.8,2.1,1.6,2.0,-0.0905,0.0106,0.1742,0.0791,0.0,0.0,0.0,0.0,0.0,0.0,0.0,0.0,-0.3533,-0.0914,0.0467,1,-0.3533,-0.0914,0.0467,1,0.0,0.0,0.0,0,0.0,0.0,0.0,0,0.0,0.0,0.0,0.8,15.0,2853823.582,0.0,1500.0
1372687245537505709,1351,1372687245544111051,1,1,1,1,0.8,2.1,1.7,2.0,-0.1066,0.0482,0.1311,0.0619,0.0,0.0,0.0,0.0,0.0,0.0,0.0,0.0,-0.3172,-0.0183,0.0363,1,-0.3172,-0.0183,0.0363,1,0.0,0.0,0.0,0,0.0,0.0,0.0,0,0.0,0.0,0.0,0.8,15.0,2853823.582,0.0,1500.0
1372687245889895620,1352,1372687245893069267,1,1,1,1,0.8,2.1,1.8,0.9,-0.1093,0.042,0.2107,0.0157,0.0,0.0,0.0,0.0,0.0,0.0,0.0,0.0,-0.4271,0.0351,0.0429,1,-0.4271,0.0351,0.0429,1,0.0,0.0,0.0,0,0.0,0.0,0.0,0,0.0,0.0,0.0,0.8,15.0,2853823.582,0.0,1500.0
1372687246218999607,1353,1372687246220300609,1,1,1,1,0.8,0.9,2.0,0.8,-0.0976,0.0311,-0.2518,0.0291,0.0,0.0,0.0,0.0,0.0,0.0,0.0,0.0,0.0,0.0,0.0,0,0.0,0.0,0.0,0,0.0,0.0,0.0,0,0.0,0.0,0.0,0,0.0,0.0,0.0,0.8,15.0,2853823.582,0.0,1500.0
1372687246568166641,1354,1372687246573692274,1,1,0,1,0.8,0.8,0.0,0.8,-0.0959,0.045,0.0,0.0391,0.0,0.0,0.336,0.0,0.0,0.0,1.0,0.0,-0.3682,0.0079,0.0454,1,-0.3682,0.0079,0.0454,1,0.0,0.0,0.0,0,0.0,0.0,0.0,0,0.0,0.0,0.0,0.8,15.0,2853823.582,0.0,1500.0
1372687246896537815,1355,1372687246900311322,1,1,1,1,0.8,0.8,2.0,0.8,-0.1086,0.0326,1.0351,0.0315,0.0,0.0,0.0,0.0,0.0,0.0,0.0,0.0,0.0,0.0,0.0,0,0.0,0.0,0.0,0,0.0,0.0,0.0,0,0.0,0.0,0.0,0,0.0,0.0,0.0,0.8,15.0,2853823.582,0.0,1500.0
1372687247247654497,1356,1372687247246732526,1,1,1,1,0.7,0.8,1.0,0.8,-0.0879,0.0522,0.1708,0.0144,0.0,0.0,0.0,0.0,0.0,0.0,0.0,0.0,-0.3453,0.0504,0.0403,1,-0.3453,0.0504,0.0403,1,0.0,0.0,0.0,0,0.0,0.0,0.0,0,0.0,0.0,0.0,0.7,15.0,2853823.582,0.0,1500.0
1372687247592122024,1357,1372687247595719838,1,1,1,1,0.7,0.8,0.9,0.8,-0.0975,0.0345,0.1667,0.0428,0.0,0.0,0.0,0.0,0.0,0.0,0.0,0.0,-0.3526,-0.0111,0.0395,1,-0.3526,-0.0111,0.0395,1,0.0,0.0,0.0,0,0.0,0.0,0.0,0,0.0,0.0,0.0,0.7,15.0,2853823.582,0.0,1500.0
1372687247941977098,1358,1372687247942198365,1,1,1,1,0.7,0.8,0.9,0.7,-0.0918,0.024,0.1632,0.0265,0.0,0.0,0.0,0.0,0.0,0.0,0.0,0.0,-0.3403,-0.0033,0.0328,1,-0.3403,-0.0033,0.0328,1,0.0,0.0,0.0,0,0.0,0.0,0.0,0,0.0,0.0,0.0,0.7,15.0,2853823.582,0.0,1500.0
1372687248294106374,1359,1372687248292676714,1,1,1,1,0.7,0.8,0.9,0.7,-0.1089,0.0218,0.1279,0.0425,0.0,0.0,0.0,0.0,0.0,0.0,0.0,0.0,-0.316,-0.0276,0.0224,1,-0.316,-0.0276,0.0224,1,0.0,0.0,0.0,0,0.0,0.0,0.0,0,0.0,0.0,0.0,0.7,15.0,2853823.582,0.0,1500.0
1372687248641500361,1360,1372687248640998372,1,1,1,1,0.7,0.8,0.8,0.7,-0.0966,0.018,0.1667,0.0497,0.0,0.0,0.0,0.0,0.0,0.0,0.0,0.0,-0.3514,-0.0423,0.0371,1,-0.3514,-0.0423,0.0371,1,0.0,0.0,0.0,0,0.0,0.0,0.0,0,0.0,0.0,0.0,0.7,15.0,2853823.582,0.0,1500.0
1372687248979446212,1361,1372687248980548835,1,1,1,1,0.7,0.8,0.8,0.6,-0.0987,0.0527,0.1611,0.0508,0.0,0.0,0.0,0.0,0.0,0.0,0.0,0.0,-0.3467,0.0025,0.0447,1,-0.3467,0.0025,0.0447,1,0.0,0.0,0.0,0,0.0,0.0,0.0,0,0.0,0.0,0.0,0.6,15.0,2853823.582,0.0,1500.0
1372687249328188678,1362,1372687249333998048,1,1,1,1,0.7,0.7,0.8,0.6,-0.0805,0.0278,0.1462,0.0561,0.0,0.0,0.0,0.0,0.0,0.0,0.0,0.0,-0.3026,-0.0378,0.0403,1,-0.3026,-0.0378,0.0403,1,0.0,0.0,0.0,0,0.0,0.0,0.0,0,0.0,0.0,0.0,0.6,15.0,2853823.582,0.0,1500.0
1372687249678249529,1363,1372687249681922777,1,1,1,1,0.7,0.7,0.8,0.7,-0.0995,0.0245,0.1742,0.0513,0.0,0.0,0.0,0.0,0.0,0.0,0.0,0.0,-0.3653,-0.0358,0.0406,1,-0.3653,-0.0358,0.0406,1,0.0,0.0,0.0,0,0.0,0.0,0.0,0,0.0,0.0,0.0,0.7,15.0,2853823.582,0.0,1500.0
1372687250028368253,1364,1372687250030610869,1,1,1,1,1.7,0.8,0.8,0.7,-0.0834,0.0133,0.157,0.0381,0.0,0.0,0.0,0.0,0.0,0.0,0.0,0.0,-0.3208,-0.0331,0.0337,1,-0.3208,-0.0331,0.0337,1,0.0,0.0,0.0,0,0.0,0.0,0.0,0,0.0,0.0,0.0,0.7,15.0,2853823.582,0.0,1500.0
1372687250376625047,1365,1372687250379369400,1,1,1,1,1.8,0.7,0.8,0.7,-0.116,0.0202,0.1772,0.1142,0.0,0.0,0.0,0.0,0.0,0.0,0.0,0.0,-0.3913,-0.1255,0.0527,1,-0.3913,-0.1255,0.0527,1,0.0,0.0,0.0,0,0.0,0.0,0.0,0,0.0,0.0,0.0,0.7,15.0,2853823.582,0.0,1500.0
1372687250729801994,1366,1372687250730948722,1,1,1,1,1.8,0.7,0.7,1.9,-0.0405,0.0277,0.1623,0.0315,0.0,0.0,0.0,0.0,0.0,0.0,0.0,0.0,-0.2707,-0.0051,0.0488,1,-0.2707,-0.0051,0.0488,1,0.0,0.0,0.0,0,0.0,0.0,0.0,0,0.0,0.0,0.0,0.7,15.0,2853823.582,0.0,1500.0
1372687251071759512,1367,1372687251077869839,1,1,1,1,1.7,1.4,0.8,2.0,-0.0491,0.0253,0.1783,0.0292,0.0,0.0,0.0,0.0,0.0,0.0,0.0,0.0,-0.3035,-0.0052,0.0495,1,-0.3035,-0.0052,0.0495,1,0.0,0.0,0.0,0,0.0,0.0,0.0,0,0.0,0.0,0.0,0.8,15.0,2853823.582,0.0,1500.0
1372687251421274274,1368,1372687251427290583,1,1,1,1,1.8,1.9,0.7,1.9,-0.1359,0.0208,0.1392,0.0228,0.0,0.0,0.0,0.0,0.0,0.0,0.0,0.0,-0.3672,-0.0027,0.0126,1,-0.3672,-0.0027,0.0126,1,0.0,0.0,0.0,0,0.0,0.0,0.0,0,0.0,0.0,0.0,0.7,15.0,2853823.582,0.0,1500.0
1372687251771504943,1369,1372687251776869355,1,1,1,1,1.8,1.9,0.8,1.6,-0.1406,-0.1277,0.0913,0.1988,0.0,0.0,0.0,0.0,0.0,0.0,0.0,0.0,-0.3095,-0.4358,0.0058,1,-0.3095,-0.4358,0.0058,1,0.0,0.0,0.0,0,0.0,0.0,0.0,0,0.0,0.0,0.0,0.8,15.0,2853823.582,0.0,1500.0
1372687252103002887,1370,1372687252107192492,1,1,1,1,1.8,1.8,1.0,1.3,-0.0151,-0.0317,-0.1399,0.013,0.0,0.0,0.0,0.0,0.0,0.0,0.0,0.0,0.0,0.0,0.0,0,0.0,0.0,0.0,0,0.0,0.0,0.0,0,0.0,0.0,0.0,0,0.0,0.0,0.0,1.0,15.0,2853823.582,0.0,1500.0
1372687252453612166,1371,1372687252458736140,1,1,1,1,1.6,1.7,1.2,1.3,-0.1229,-0.0362,0.1378,0.0042,0.0,0.0,0.0,0.0,0.0,0.0,0.0,0.0,-0.3479,-0.0539,-0.0047,1,-0.3479,-0.0539,-0.0047,1,0.0,0.0,0.0,0,0.0,0.0,0.0,0,0.0,0.0,0.0,1.2,15.0,2853823.582,0.0,1500.0
1372687252782146148,1372,1372687252784345934,1,1,1,1,1.6,1.6,1.4,1.2,-0.1147,-0.4782,0.0813,-0.0062,0.0,0.0,0.0,0.0,0.0,0.0,0.0,0.0,0.0,0.0,0.0,0,0.0,0.0,0.0,0,0.0,0.0,0.0,0,0.0,0.0,0.0,0,0.0,0.0,0.0,1.2,15.0,2853823.582,0.0,1500.0
1372687253133043478,1373,1372687253132745343,1,1,1,1,1.6,1.3,2.1,1.2,-0.1183,0.0173,0.1816,-0.0038,0.0,0.0,0.0,0.0,0.0,0.0,0.0,0.0,-0.4003,0.0282,0.0207,1,-0.4003,0.0282,0.0207,1,0.0,0.0,0.0,0,0.0,0.0,0.0,0,0.0,0.0,0.0,1.2,15.0,2853823.582,0.0,1500.0
1372687253481285317,1374,1372687253484614347,1,1,1,1,1.6,1.6,2.1,1.2,-0.1426,-0.0156,0.0869,-0.0234,0.0,0.0,0.0,0.0,0.0,0.0,0.0,0.0,-0.3063,0.0104,-0.0255,1,-0.3063,0.0104,-0.0255,1,0.0,0.0,0.0,0,0.0,0.0,0.0,0,0.0,0.0,0.0,1.2,15.0,2853823.582,0.0,1500.0
1372687253829137366,1375,1372687253834375036,1,1,1,1,1.6,1.7,2.1,1.2,-0.0922,0.0008,0.2016,0.0287,0.0,0.0,0.0,0.0,0.0,0.0,0.0,0.0,-0.3921,-0.0372,0.0374,1,-0.3921,-0.0372,0.0374,1,0.0,0.0,0.0,0,0.0,0.0,0.0,0,0.0,0.0,0.0,1.2,15.0,2853823.582,0.0,1500.0
1372687254180995743,1376,1372687254180875284,1,1,1,1,1.6,1.7,1.8,1.2,-0.097,0.0715,0.129,0.0227,0.0,0.0,0.0,0.0,0.0,0.0,0.0,0.0,-0.3016,0.0651,0.034,1,-0.3016,0.0651,0.034,1,0.0,0.0,0.0,0,0.0,0.0,0.0,0,0.0,0.0,0.0,1.2,15.0,2853823.582,0.0,1500.0
1372687254503137195,1377,1372687254504784550,1,1,1,1,1.6,1.6,1.8,1.2,0.0657,-0.0007,0.1378,-0.0102,0.0,0.0,0.0,0.0,0.0,0.0,0.0,0.0,0.0,0.0,0.0,0,0.0,0.0,0.0,0,0.0,0.0,0.0,0,0.0,0.0,0.0,0,0.0,0.0,0.0,1.2,15.0,2853823.582,0.0,1500.0
1372687254850802873,1378,1372687254854519123,1,1,1,1,1.5,1.5,2.0,1.2,-0.1929,0.0191,0.1293,0.01,0.0,0.0,0.0,0.0,0.0,0.0,0.0,0.0,-0.43,0.0121,-0.0093,1,-0.43,0.0121,-0.0093,1,0.0,0.0,0.0,0,0.0,0.0,0.0,0,0.0,0.0,0.0,1.2,15.0,2853823.582,0.0,1500.0
1372687255200993002,1379,1372687255210131946,1,1,1,1,1.4,1.6,1.9,1.7,-0.1151,-0.0365,0.1353,-0.1604,0.0,0.0,0.0,0.0,0.0,0.0,0.0,0.0,-0.3342,0.1654,-0.0477,1,-0.3342,0.1654,-0.0477,1,0.0,0.0,0.0,0,0.0,0.0,0.0,0,0.0,0.0,0.0,1.4,15.0,2853823.582,0.0,1500.0
1372687255551913652,1380,1372687255556957250,1,1,1,1,1.6,1.6,1.9,1.8,-0.2098,0.0351,0.1363,0.0291,0.0,0.0,0.0,0.0,0.0,0.0,0.0,0.0,-0.4619,0.008,-0.0025,1,-0.4619,0.008,-0.0025,1,0.0,0.0,0.0,0,0.0,0.0,0.0,0,0.0,0.0,0.0,1.6,15.0,2853823.582,0.0,1500.0
1372687255901388329,1381,1372687255905792286,1,1,1,1,1.7,1.5,1.7,1.8,-0.2187,-0.0145,0.1031,0.0001,0.0,0.0,0.0,0.0,0.0,0.0,0.0,0.0,-0.4295,-0.0195,-0.0351,1,-0.4295,-0.0195,-0.0351,1,0.0,0.0,0.0,0,0.0,0.0,0.0,0,0.0,0.0,0.0,1.5,15.0,2853823.582,0.0,1500.0
1372687256262864796,1382,1372687256262676960,1,1,1,1,1.1,1.3,1.8,1.6,-0.1723,-0.0108,0.1208,0.0348,0.0,0.0,0.0,0.0,0.0,0.0,0.0,0.0,-0.3912,-0.0609,-0.0075,1,-0.3912,-0.0609,-0.0075,1,0.0,0.0,0.0,0,0.0,0.0,0.0,0,0.0,0.0,0.0,1.1,15.0,2853823.582,0.0,1500.0
1372687256604255281,1383,1372687256609920042,1,1,1,1,0.7,1.2,1.8,1.6,-0.1148,-0.0051,0.1413,0.0097,0.0,0.0,0.0,0.0,0.0,0.0,0.0,0.0,-0.3418,-0.0198,0.0084,1,-0.3418,-0.0198,0.0084,1,0.0,0.0,0.0,0,0.0,0.0,0.0,0,0.0,0.0,0.0,0.7,15.0,2853823.582,0.0,1500.0
1372687256933903206,1384,1372687256935976043,1,1,1,1,0.9,1.2,1.6,1.7,-0.4744,-0.0202,0.2298,0.0091,0.0,0.0,0.0,0.0,0.0,0.0,0.0,0.0,0.0,0.0,0.0,0,0.0,0.0,0.0,0,0.0,0.0,0.0,0,0.0,0.0,0.0,0,0.0,0.0,0.0,0.9,15.0,2853823.582,0.0,1500.0
1372687257286080937,1385,1372687257285459050,1,1,1,1,1.0,0.5,1.7,1.7,-0.1004,0.0129,0.2261,-0.0349,0.0,0.0,0.0,0.0,0.0,0.0,0.0,0.0,-0.4358,0.0638,0.0279,1,-0.4358,0.0638,0.0279,1,0.0,0.0,0.0,0,0.0,0.0,0.0,0,0.0,0.0,0.0,0.5,15.0,2853823.582,0.0,1500.0
1372687257633913642,1386,1372687257634903403,1,1,1,1,1.0,0.5,1.6,1.4,-0.0698,0.0236,0.1468,0.0349,0.0,0.0,0.0,0.0,0.0,0.0,0.0,0.0,-0.2891,-0.0151,0.0365,1,-0.2891,-0.0151,0.0365,1,0.0,0.0,0.0,0,0.0,0.0,0.0,0,0.0,0.0,0.0,0.5,15.0,2853823.582,0.0,1500.0
1372687257954711652,1387,1372687257959441292,1,1,1,1,1.0,0.5,0.7,1.4,-0.1199,0.0157,0.2137,0.1991,0.0,0.0,0.0,0.0,0.0,0.0,0.0,0.0,0.0,0.0,0.0,0,0.0,0.0,0.0,0,0.0,0.0,0.0,0,0.0,0.0,0.0,0,0.0,0.0,0.0,0.5,15.0,2853823.582,0.0,1500.0
1372687258304051010,1388,1372687258308089533,1,1,1,1,1.0,0.6,0.7,1.3,-0.0557,0.0233,0.1746,0.0353,0.0,0.0,0.0,0.0,0.0,0.0,0.0,0.0,-0.3074,-0.016,0.0478,1,-0.3074,-0.016,0.0478,1,0.0,0.0,0.0,0,0.0,0.0,0.0,0,0.0,0.0,0.0,0.6,15.0,2853823.582,0.0,1500.0
1372687258647087079,1389,1372687258654919469,1,1,1,1,1.1,0.6,0.7,1.3,-0.0836,0.0174,0.1554,0.019,0.0,0.0,0.0,0.0,0.0,0.0,0.0,0.0,-0.319,-0.0021,0.0291,1,-0.319,-0.0021,0.0291,1,0.0,0.0,0.0,0,0.0,0.0,0.0,0,0.0,0.0,0.0,0.6,15.0,2853823.582,0.0,1500.0
1372687258997542325,1390,1372687259002002418,1,1,1,1,1.1,0.6,0.8,1.3,0.0044,0.0134,0.1704,0.056,0.0,0.0,0.0,0.0,0.0,0.0,0.0,0.0,-0.2215,-0.0569,0.0658,1,-0.2215,-0.0569,0.0658,1,0.0,0.0,0.0,0,0.0,0.0,0.0,0,0.0,0.0,0.0,0.6,15.0,2853823.582,0.0,1500.0
1372687259326317602,1391,1372687259325978606,1,1,1,1,1.2,0.7,0.8,1.2,0.914,0.0191,0.15,0.0224,0.0,0.0,0.0,0.0,0.0,0.0,0.0,0.0,0.0,0.0,0.0,0,0.0,0.0,0.0,0,0.0,0.0,0.0,0,0.0,0.0,0.0,0,0.0,0.0,0.0,0.7,15.0,2853823.582,0.0,1500.0
1372687259675874001,1392,1372687259674923121,1,1,1,1,1.6,0.7,0.9,1.3,-0.0637,0.0138,0.1305,-0.0104,0.0,0.0,0.0,0.0,0.0,0.0,0.0,0.0,-0.2592,0.0323,0.0189,1,-0.2592,0.0323,0.0189,1,0.0,0.0,0.0,0,0.0,0.0,0.0,0,0.0,0.0,0.0,0.7,15.0,2853823.582,0.0,1500.0
1372687260024503078,1393,1372687260024872845,1,1,1,1,1.4,0.8,0.9,1.3,-0.1476,0.0074,0.1219,0.017,0.0,0.0,0.0,0.0,0.0,0.0,0.0,0.0,-0.3597,-0.0128,-0.0004,1,-0.3597,-0.0128,-0.0004,1,0.0,0.0,0.0,0,0.0,0.0,0.0,0,0.0,0.0,0.0,0.8,15.0,2853823.582,0.0,1500.0
1372687260369913976,1394,1372687260373266442,1,1,1,1,1.4,0.8,1.0,1.2,-0.1219,0.017,0.1323,-0.0844,0.0,0.0,0.0,0.0,0.0,0.0,0.0,0.0,-0.3393,0.1353,-0.0154,1,-0.3393,0.1353,-0.0154,1,0.0,0.0,0.0,0,0.0,0.0,0.0,0,0.0,0.0,0.0,0.8,15.0,2853823.582,0.0,1500.0
1372687260702059873,1395,1372687260701857267,1,1,1,1,1.4,0.8,1.0,1.5,0.1496,-0.0035,0.1197,0.071,0.0,0.0,0.0,0.0,0.0,0.0,0.0,0.0,0.0,0.0,0.0,0,0.0,0.0,0.0,0,0.0,0.0,0.0,0,0.0,0.0,0.0,0,0.0,0.0,0.0,0.8,15.0,2853823.582,0.0,1500.0
1372687261044463984,1396,1372687261053479642,1,1,1,1,1.7,0.8,1.0,1.5,-0.148,-0.0076,0.1159,-0.0216,0.0,0.0,0.0,0.0,0.0,0.0,0.0,0.0,-0.3522,0.0187,-0.0165,1,-0.3522,0.0187,-0.0165,1,0.0,0.0,0.0,0,0.0,0.0,0.0,0,0.0,0.0,0.0,0.8,15.0,2853823.582,0.0,1500.0
1372687261405275280,1397,1372687261404975823,1,1,1,1,1.7,1.0,1.1,1.5,-0.1178,-0.0224,0.1414,-0.0178,0.0,0.0,0.0,0.0,0.0,0.0,0.0,0.0,-0.3459,-0.0061,-0.0045,1,-0.3459,-0.0061,-0.0045,1,0.0,0.0,0.0,0,0.0,0.0,0.0,0,0.0,0.0,0.0,1.0,15.0,2853823.582,0.0,1500.0
1372687261744265461,1398,1372687261753664289,1,1,1,1,1.6,1.1,1.1,1.5,-0.1835,-0.0218,0.0779,-0.0078,0.0,0.0,0.0,0.0,0.0,0.0,0.0,0.0,-0.3489,-0.0187,-0.0365,1,-0.3489,-0.0187,-0.0365,1,0.0,0.0,0.0,0,0.0,0.0,0.0,0,0.0,0.0,0.0,1.1,15.0,2853823.582,0.0,1500.0
1372687262108677435,1399,1372687262109488320,1,1,1,1,1.6,1.4,1.2,1.6,-0.1493,-0.0149,0.095,-0.0377,0.0,0.0,0.0,0.0,0.0,0.0,0.0,0.0,-0.3261,0.0304,-0.0289,1,-0.3261,0.0304,-0.0289,1,0.0,0.0,0.0,0,0.0,0.0,0.0,0,0.0,0.0,0.0,1.2,15.0,2853823.582,0.0,1500.0
1372687262457285323,1400,1372687262459433449,1,1,1,1,1.6,1.3,1.2,1.6,-0.138,-0.0004,0.1222,0.0637,0.0,0.0,0.0,0.0,0.0,0.0,0.0,0.0,-0.3473,-0.0856,0.0128,1,-0.3473,-0.0856,0.0128,1,0.0,0.0,0.0,0,0.0,0.0,0.0,0,0.0,0.0,0.0,1.2,15.0,2853823.582,0.0,1500.0
1372687262807215583,1401,1372687262806736749,1,1,1,1,1.7,1.3,1.3,1.7,-0.2099,0.0066,0.14,0.0032,0.0,0.0,0.0,0.0,0.0,0.0,0.0,0.0,-0.467,0.0045,-0.0162,1,-0.467,0.0045,-0.0162,1,0.0,0.0,0.0,0,0.0,0.0,0.0,0,0.0,0.0,0.0,1.3,15.0,2853823.582,0.0,1500.0
1372687263147424758,1402,1372687263156438107,1,1,1,1,1.8,1.3,1.4,1.7,0.5381,0.0164,0.1438,-0.0207,0.0,0.0,0.0,0.0,0.0,0.0,0.0,0.0,0.5262,0.0495,0.1827,1,0.5262,0.0495,0.1827,1,0.0,0.0,0.0,0,0.0,0.0,0.0,0,0.0,0.0,0.0,1.3,15.0,2853823.582,0.0,1500.0
1372687263502247355,1403,1372687263505050311,1,1,1,1,1.9,1.3,1.6,1.8,-0.094,-0.0222,0.1417,0.1027,0.0,0.0,0.0,0.0,0.0,0.0,0.0,0.0,-0.3146,-0.1667,0.0345,1,-0.3146,-0.1667,0.0345,1,0.0,0.0,0.0,0,0.0,0.0,0.0,0,0.0,0.0,0.0,1.3,15.0,2853823.582,0.0,1500.0
1372687263852326817,1404,1372687263858508786,1,1,1,1,2.0,1.4,1.5,1.5,-0.0636,-0.0493,0.0901,0.2312,0.0,0.0,0.0,0.0,0.0,0.0,0.0,0.0,-0.2051,-0.3744,0.0562,1,-0.2051,-0.3744,0.0562,1,0.0,0.0,0.0,0,0.0,0.0,0.0,0,0.0,0.0,0.0,1.4,15.0,2853823.582,0.0,1500.0
1372687264214856318,1405,1372687264212584685,1,1,1,1,2.0,1.4,1.6,1.5,-0.1123,0.005,0.164,0.0295,0.0,0.0,0.0,0.0,0.0,0.0,0.0,0.0,-0.3688,-0.0327,0.0232,1,-0.3688,-0.0327,0.0232,1,0.0,0.0,0.0,0,0.0,0.0,0.0,0,0.0,0.0,0.0,1.4,15.0,2853823.582,0.0,1500.0
1372687264565428761,1406,1372687264568310672,0,1,1,1,0.0,1.5,1.6,1.5,0.0,0.0386,0.1097,0.0276,-0.147,0.0,0.0,0.0,1.0,0.0,0.0,0.0,-0.2045,0.0147,0.0357,1,-0.2045,0.0147,0.0357,1,0.0,0.0,0.0,0,0.0,0.0,0.0,0,0.0,0.0,0.0,1.5,15.0,2853823.582,0.0,1500.0
1372687264926719201,1407,1372687264928924969,0,1,1,1,0.0,1.6,1.4,1.6,0.0,0.002,0.1465,-0.0024,0.253,0.0,0.0,0.0,1.0,0.0,0.0,0.0,-0.3916,0.0059,-0.0002,1,-0.3916,0.0059,-0.0002,1,0.0,0.0,0.0,0,0.0,0.0,0.0,0,0.0,0.0,0.0,1.4,15.0,2853823.582,0.0,1500.0
1372687265266820984,1408,1372687265266376025,0,1,1,1,0.0,1.6,1.5,1.9,0.0,-0.0122,0.1263,-0.167,0.713,0.0,0.0,0.0,1.0,0.0,0.0,0.0,0.0,0.0,0.0,0,0.0,0.0,0.0,0,0.0,0.0,0.0,0,0.0,0.0,0.0,0,0.0,0.0,0.0,1.5,15.0,2853823.582,0.0,1500.0
1372687265629508585,1409,1372687265630844779,0,1,1,1,0.0,1.7,1.5,2.1,0.0,-0.0001,0.1381,0.4778,-0.74,0.0,0.0,0.0,1.0,0.0,0.0,0.0,0.2689,-0.6378,0.2576,1,0.2689,-0.6378,0.2576,1,0.0,0.0,0.0,0,0.0,0.0,0.0,0,0.0,0.0,0.0,1.5,15.0,2853823.582,0.0,1500.0
1372687265957810877,1410,1372687265957048996,1,1,1,1,2.6,1.7,1.8,2.2,-0.1385,0.064,0.1686,0.1318,0.0,0.0,0.0,0.0,0.0,0.0,0.0,0.0,0.0,0.0,0.0,0,0.0,0.0,0.0,0,0.0,0.0,0.0,0,0.0,0.0,0.0,0,0.0,0.0,0.0,1.7,15.0,2853823.582,0.0,1500.0
1372687266297839165,1411,1372687266306154224,1,1,1,1,2.7,1.7,1.7,2.2,-0.1944,0.0121,0.1685,0.0365,0.0,0.0,0.0,0.0,0.0,0.0,0.0,0.0,-0.4843,-0.0326,0.0061,1,-0.4843,-0.0326,0.0061,1,0.0,0.0,0.0,0,0.0,0.0,0.0,0,0.0,0.0,0.0,1.7,15.0,2853823.582,0.0,1500.0
1372687266639821333,1412,1372687266646760925,1,1,1,1,2.7,1.8,1.7,2.4,-0.1211,0.0015,0.2071,0.0009,0.0,0.0,0.0,0.0,0.0,0.0,0.0,0.0,-0.438,0.0008,0.0238,1,-0.438,0.0008,0.0238,1,0.0,0.0,0.0,0,0.0,0.0,0.0,0,0.0,0.0,0.0,1.7,15.0,2853823.582,0.0,1500.0
1372687266990337773,1413,1372687266990682012,0,1,1,1,0.0,1.8,1.7,2.1,0.0,-0.0003,0.1071,-0.7857,-0.684,0.0,0.0,0.0,1.0,0.0,0.0,0.0,0.0,0.0,0.0,0,0.0,0.0,0.0,0,0.0,0.0,0.0,0,0.0,0.0,0.0,0,0.0,0.0,0.0,1.7,15.0,2853823.582,0.0,1500.0
1372687267351054626,1414,1372687267353879477,0,1,1,1,0.0,1.8,1.7,2.1,0.0,0.1806,0.104,0.0161,-0.371,0.0,0.0,0.0,1.0,0.0,0.0,0.0,-0.0151,0.2195,0.1061,1,-0.0151,0.2195,0.1061,1,0.0,0.0,0.0,0,0.0,0.0,0.0,0,0.0,0.0,0.0,1.7,15.0,2853823.582,0.0,1500.0
1372687267700952364,1415,1372687267700236621,1,1,1,1,2.6,1.8,1.7,2.3,-0.0978,-0.0178,0.0944,0.0251,0.0,0.0,0.0,0.0,0.0,0.0,0.0,0.0,-0.2565,-0.0573,0.001,1,-0.2565,-0.0573,0.001,1,0.0,0.0,0.0,0,0.0,0.0,0.0,0,0.0,0.0,0.0,1.7,15.0,2853823.582,0.0,1500.0
1372687268022219343,1416,1372687268025195732,1,1,1,1,2.9,1.9,1.8,2.3,-0.9915,-0.0243,0.1029,-0.1455,0.0,0.0,0.0,0.0,0.0,0.0,0.0,0.0,0.0,0.0,0.0,0,0.0,0.0,0.0,0,0.0,0.0,0.0,0,0.0,0.0,0.0,0,0.0,0.0,0.0,1.8,15.0,2853823.582,0.0,1500.0
1372687268393225695,1417,1372687268392961631,0,1,1,1,0.0,1.9,1.9,2.0,0.0,0.0026,0.1196,-0.1921,0.047,0.0,0.0,0.0,1.0,0.0,0.0,0.0,-0.5722,0.2599,-0.1022,1,-0.5722,0.2599,-0.1022,1,0.0,0.0,0.0,0,0.0,0.0,0.0,0,0.0,0.0,0.0,1.9,15.0,2853823.582,0.0,1500.0
1372687268723861428,1418,1372687268731796334,0,1,1,1,0.0,1.9,1.9,1.9,0.0,-0.009,0.1694,1.3992,-0.445,0.0,0.0,0.0,1.0,0.0,0.0,0.0,0.0,0.0,0.0,0,0.0,0.0,0.0,0,0.0,0.0,0.0,0,0.0,0.0,0.0,0,0.0,0.0,0.0,1.9,15.0,2853823.582,0.0,1500.0
1372687269072324879,1419,1372687269081027096,1,1,1,1,2.9,1.8,2.4,2.2,-0.1006,-0.0063,-0.0561,-0.0175,0.0,0.0,0.0,0.0,0.0,0.0,0.0,0.0,-0.0594,0.0149,-0.0487,1,-0.0594,0.0149,-0.0487,1,0.0,0.0,0.0,0,0.0,0.0,0.0,0,0.0,0.0,0.0,1.8,15.0,2853823.582,0.0,1500.0
1372687269400999618,1420,1372687269406551118,1,1,1,1,3.0,1.8,2.2,2.6,-0.1253,0.1215,0.084,-0.0566,0.0,0.0,0.0,0.0,0.0,0.0,0.0,0.0,0.0,0.0,0.0,0,0.0,0.0,0.0,0,0.0,0.0,0.0,0,0.0,0.0,0.0,0,0.0,0.0,0.0,1.8,15.0,2853823.582,0.0,1500.0
1372687269750334323,1421,1372687269755636767,1,1,1,1,3.0,1.8,1.9,2.5,-0.1109,0.0319,0.0776,-0.0256,0.0,0.0,0.0,0.0,0.0,0.0,0.0,0.0,-0.2516,0.0767,-0.0073,1,-0.2516,0.0767,-0.0073,1,0.0,0.0,0.0,0,0.0,0.0,0.0,0,0.0,0.0,0.0,1.8,15.0,2853823.582,0.0,1500.0
1372687270104598606,1422,1372687270112978233,1,1,1,1,3.0,1.7,2.4,2.5,-0.127,-0.1454,0.0411,-0.0273,0.0,0.0,0.0,0.0,0.0,0.0,0.0,0.0,-0.2244,-0.1576,-0.0697,1,-0.2244,-0.1576,-0.0697,1,0.0,0.0,0.0,0,0.0,0.0,0.0,0,0.0,0.0,0.0,1.7,15.0,2853823.582,0.0,1500.0
1372687270464718619,1423,1372687270468702709,1,1,1,1,3.0,1.6,2.5,2.6,-0.1026,-0.2034,0.0367,0.0062,0.0,0.0,0.0,0.0,0.0,0.0,0.0,0.0,-0.1859,-0.2797,-0.0709,1,-0.1859,-0.2797,-0.0709,1,0.0,0.0,0.0,0,0.0,0.0,0.0,0,0.0,0.0,0.0,1.6,15.0,2853823.582,0.0,1500.0
1372687270813523840,1424,1372687270819225540,1,1,1,1,3.0,1.5,2.5,2.8,-0.177,0.0636,0.171,-0.0479,0.0,0.0,0.0,0.0,0.0,0.0,0.0,0.0,-0.4645,0.1488,0.0026,1,-0.4645,0.1488,0.0026,1,0.0,0.0,0.0,0,0.0,0.0,0.0,0,0.0,0.0,0.0,1.5,15.0,2853823.582,0.0,1500.0
1372687271163201350,1425,1372687271162058081,1,1,1,1,2.9,1.4,2.0,2.8,-0.1356,0.0032,0.1547,0.0013,0.0,0.0,0.0,0.0,0.0,0.0,0.0,0.0,-0.3874,0.0025,0.0063,1,-0.3874,0.0025,0.0063,1,0.0,0.0,0.0,0,0.0,0.0,0.0,0,0.0,0.0,0.0,1.4,15.0,2853823.582,0.0,1500.0
1372687271483141852,1426,1372687271483736918,1,1,1,1,2.2,1.4,2.0,2.8,0.0013,0.0075,0.1303,-0.0159,0.0,0.0,0.0,0.0,0.0,0.0,0.0,0.0,0.0,0.0,0.0,0,0.0,0.0,0.0,0,0.0,0.0,0.0,0,0.0,0.0,0.0,0,0.0,0.0,0.0,1.4,15.0,2853823.582,0.0,1500.0
1372687271821954624,1427,1372687271826121576,1,1,1,1,2.5,1.3,2.1,2.8,0.0806,-0.003,0.0625,-0.0394,0.0,0.0,0.0,0.0,0.0,0.0,0.0,0.0,0.0242,0.0486,0.0271,1,0.0242,0.0486,0.0271,1,0.0,0.0,0.0,0,0.0,0.0,0.0,0,0.0,0.0,0.0,1.3,15.0,2853823.582,0.0,1500.0
1372687272144067025,1428,1372687272150425182,1,1,1,1,2.5,1.3,2.5,2.8,0.4022,-0.0072,0.1708,-0.0049,0.0,0.0,0.0,0.0,0.0,0.0,0.0,0.0,0.0,0.0,0.0,0,0.0,0.0,0.0,0,0.0,0.0,0.0,0,0.0,0.0,0.0,0,0.0,0.0,0.0,1.3,15.0,2853823.582,0.0,1500.0
1372687272497781613,1429,1372687272499548884,1,1,1,1,2.5,1.3,2.5,2.5,-0.1965,-0.0035,0.2746,-0.0151,0.0,0.0,0.0,0.0,0.0,0.0,0.0,0.0,-0.6287,0.0155,0.016,1,-0.6287,0.0155,0.016,1,0.0,0.0,0.0,0,0.0,0.0,0.0,0,0.0,0.0,0.0,1.3,15.0,2853823.582,0.0,1500.0
1372687272847367161,1430,1372687272855799926,1,1,1,1,3.3,1.3,2.5,2.5,-0.2435,-0.0203,0.2236,-0.1425,0.0,0.0,0.0,0.0,0.0,0.0,0.0,0.0,-0.6234,0.1631,-0.0493,1,-0.6234,0.1631,-0.0493,1,0.0,0.0,0.0,0,0.0,0.0,0.0,0,0.0,0.0,0.0,1.3,15.0,2853823.582,0.0,1500.0
1372687273177978193,1431,1372687273178621607,1,1,1,1,2.4,1.3,2.5,2.5,-0.3046,0.0009,0.0046,-0.0909,0.0,0.0,0.0,0.0,0.0,0.0,0.0,0.0,0.0,0.0,0.0,0,0.0,0.0,0.0,0,0.0,0.0,0.0,0,0.0,0.0,0.0,0,0.0,0.0,0.0,1.3,15.0,2853823.582,0.0,1500.0
1372687273518852821,1432,1372687273521731154,1,1,1,1,2.8,1.3,2.5,2.5,0.2587,0.0087,0.0065,-0.0386,0.0,0.0,0.0,0.0,0.0,0.0,0.0,0.0,0.3366,0.0631,0.0634,1,0.3366,0.0631,0.0634,1,0.0,0.0,0.0,0,0.0,0.0,0.0,0,0.0,0.0,0.0,1.3,15.0,2853823.582,0.0,1500.0
1372687273867891929,1433,1372687273870155238,1,1,1,1,2.8,1.3,2.5,2.5,-0.1686,-0.0146,0.0758,0.1538,0.0,0.0,0.0,0.0,0.0,0.0,0.0,0.0,-0.3262,-0.2248,0.0125,1,-0.3262,-0.2248,0.0125,1,0.0,0.0,0.0,0,0.0,0.0,0.0,0,0.0,0.0,0.0,1.3,15.0,2853823.582,0.0,1500.0
1372687274228771947,1434,1372687274230680717,1,1,1,1,2.7,1.3,2.6,2.6,-0.2847,-0.0117,0.0805,0.079,0.0,0.0,0.0,0.0,0.0,0.0,0.0,0.0,-0.4874,-0.1211,-0.0369,1,-0.4874,-0.1211,-0.0369,1,0.0,0.0,0.0,0,0.0,0.0,0.0,0,0.0,0.0,0.0,1.3,15.0,2853823.582,0.0,1500.0
1372687274578432687,1435,1372687274579350559,1,1,1,1,3.3,1.4,2.7,2.6,-0.1964,-0.0325,0.1051,0.0321,0.0,0.0,0.0,0.0,0.0,0.0,0.0,0.0,-0.4024,-0.0862,-0.0247,1,-0.4024,-0.0862,-0.0247,1,0.0,0.0,0.0,0,0.0,0.0,0.0,0,0.0,0.0,0.0,1.4,15.0,2853823.582,0.0,1500.0
1372687274930918647,1436,1372687274932924103,1,1,1,1,3.3,1.4,2.7,2.7,-0.1064,-0.0173,0.1041,-0.0629,0.0,0.0,0.0,0.0,0.0,0.0,0.0,0.0,-0.2809,0.0609,-0.0222,1,-0.2809,0.0609,-0.0222,1,0.0,0.0,0.0,0,0.0,0.0,0.0,0,0.0,0.0,0.0,1.4,15.0,2853823.582,0.0,1500.0
1372687275260061470,1437,1372687275263541221,1,1,1,1,3.3,1.5,2.7,2.8,-0.1256,-0.0142,0.0575,0.3999,0.0,0.0,0.0,0.0,0.0,0.0,0.0,0.0,0.0,0.0,0.0,0,0.0,0.0,0.0,0,0.0,0.0,0.0,0,0.0,0.0,0.0,0,0.0,0.0,0.0,1.5,15.0,2853823.582,0.0,1500.0
1372687275612320048,1438,1372687275612429971,1,1,1,1,3.3,1.5,2.8,2.8,-0.1228,-0.0334,0.1118,-0.0889,0.0,0.0,0.0,0.0,0.0,0.0,0.0,0.0,-0.3131,0.0741,-0.036,1,-0.3131,0.0741,-0.036,1,0.0,0.0,0.0,0,0.0,0.0,0.0,0,0.0,0.0,0.0,1.5,15.0,2853823.582,0.0,1500.0
1372687275962192963,1439,1372687275966386383,1,1,1,1,3.2,1.5,2.0,3.1,-0.1688,-0.0432,0.132,0.0262,0.0,0.0,0.0,0.0,0.0,0.0,0.0,0.0,-0.4015,-0.0926,-0.0145,1,-0.4015,-0.0926,-0.0145,1,0.0,0.0,0.0,0,0.0,0.0,0.0,0,0.0,0.0,0.0,1.5,15.0,2853823.582,0.0,1500.0
1372687276322247878,1440,1372687276326573022,1,1,1,1,3.3,1.5,2.0,3.1,-0.1166,-0.026,0.0291,-0.114,0.0,0.0,0.0,0.0,0.0,0.0,0.0,0.0,-0.1945,0.1174,-0.0614,1,-0.1945,0.1174,-0.0614,1,0.0,0.0,0.0,0,0.0,0.0,0.0,0,0.0,0.0,0.0,1.5,15.0,2853823.582,0.0,1500.0
1372687276673522404,1441,1372687276675751309,1,1,1,1,3.3,1.5,2.1,2.6,-0.0966,-0.0291,0.1019,-0.0173,0.0,0.0,0.0,0.0,0.0,0.0,0.0,0.0,-0.2649,-0.0157,-0.0111,1,-0.2649,-0.0157,-0.0111,1,0.0,0.0,0.0,0,0.0,0.0,0.0,0,0.0,0.0,0.0,1.5,15.0,2853823.582,0.0,1500.0
1372687277032693483,1442,1372687277032470181,1,1,1,1,3.2,1.5,2.1,2.5,-0.1139,-0.0302,0.0795,-0.0561,0.0,0.0,0.0,0.0,0.0,0.0,0.0,0.0,-0.2581,0.0346,-0.0326,1,-0.2581,0.0346,-0.0326,1,0.0,0.0,0.0,0,0.0,0.0,0.0,0,0.0,0.0,0.0,1.5,15.0,2853823.582,0.0,1500.0
1372687277376361628,1443,1372687277383690417,1,1,1,1,3.3,1.5,2.0,2.5,-0.1282,-0.0329,-0.0491,-0.0348,0.0,0.0,0.0,0.0,0.0,0.0,0.0,0.0,-0.1056,0.0025,-0.0661,1,-0.1056,0.0025,-0.0661,1,0.0,0.0,0.0,0,0.0,0.0,0.0,0,0.0,0.0,0.0,1.5,15.0,2853823.582,0.0,1500.0
1372687277725044452,1444,1372687277732250614,1,1,1,1,3.3,1.5,2.1,2.5,-0.1143,-0.0415,0.0827,0.027,0.0,0.0,0.0,0.0,0.0,0.0,0.0,0.0,-0.2629,-0.0914,-0.0124,1,-0.2629,-0.0914,-0.0124,1,0.0,0.0,0.0,0,0.0,0.0,0.0,0,0.0,0.0,0.0,1.5,15.0,2853823.582,0.0,1500.0
1372687278083731633,1445,1372687278085756661,1,1,1,1,3.3,1.5,2.0,2.5,-0.1223,-0.0248,0.0561,-0.0031,0.0,0.0,0.0,0.0,0.0,0.0,0.0,0.0,-0.2381,-0.029,-0.0254,1,-0.2381,-0.029,-0.0254,1,0.0,0.0,0.0,0,0.0,0.0,0.0,0,0.0,0.0,0.0,1.5,15.0,2853823.582,0.0,1500.0
1372687278440747441,1446,1372687278446474175,1,1,1,1,3.4,1.6,2.1,2.5,-0.1409,-0.0344,0.1203,-0.0195,0.0,0.0,0.0,0.0,0.0,0.0,0.0,0.0,-0.3486,-0.0199,-0.0201,1,-0.3486,-0.0199,-0.0201,1,0.0,0.0,0.0,0,0.0,0.0,0.0,0,0.0,0.0,0.0,1.6,15.0,2853823.582,0.0,1500.0
1372687278800248825,1447,1372687278798463922,1,1,1,1,3.3,1.6,2.2,2.5,-0.1183,-0.0358,0.1285,-0.0096,0.0,0.0,0.0,0.0,0.0,0.0,0.0,0.0,-0.3294,-0.035,-0.0095,1,-0.3294,-0.035,-0.0095,1,0.0,0.0,0.0,0,0.0,0.0,0.0,0,0.0,0.0,0.0,1.6,15.0,2853823.582,0.0,1500.0
1372687279148339756,1448,1372687279147721533,1,1,1,1,3.4,1.6,2.2,2.5,-0.2426,-0.0497,0.0934,0.0122,0.0,0.0,0.0,0.0,0.0,0.0,0.0,0.0,-0.4484,-0.0826,-0.0504,1,-0.4484,-0.0826,-0.0504,1,0.0,0.0,0.0,0,0.0,0.0,0.0,0,0.0,0.0,0.0,1.6,15.0,2853823.582,0.0,1500.0
1372687279499172878,1449,1372687279501248483,1,1,1,1,3.4,1.7,2.1,2.5,-0.11,-0.0263,0.09,-0.0082,0.0,0.0,0.0,0.0,0.0,0.0,0.0,0.0,-0.2669,-0.0242,-0.0147,1,-0.2669,-0.0242,-0.0147,1,0.0,0.0,0.0,0,0.0,0.0,0.0,0,0.0,0.0,0.0,1.7,15.0,2853823.582,0.0,1500.0
1372687279848898027,1450,1372687279857447029,1,1,1,1,3.4,1.7,2.0,2.5,-0.1104,-0.0244,0.0995,-0.041,0.0,0.0,0.0,0.0,0.0,0.0,0.0,0.0,-0.2801,0.0222,-0.0206,1,-0.2801,0.0222,-0.0206,1,0.0,0.0,0.0,0,0.0,0.0,0.0,0,0.0,0.0,0.0,1.7,15.0,2853823.582,0.0,1500.0
1372687280207122188,1451,1372687280206453446,1,1,1,1,3.2,1.8,2.1,2.7,-0.222,-0.0241,0.1188,0.0105,0.0,0.0,0.0,0.0,0.0,0.0,0.0,0.0,-0.4548,-0.0462,-0.0315,1,-0.4548,-0.0462,-0.0315,1,0.0,0.0,0.0,0,0.0,0.0,0.0,0,0.0,0.0,0.0,1.8,15.0,2853823.582,0.0,1500.0
1372687280533740087,1452,1372687280536604930,1,1,1,1,3.2,2.0,2.0,3.3,-0.1162,-0.0511,0.0781,-0.0206,0.0,0.0,0.0,0.0,0.0,0.0,0.0,0.0,0.0,0.0,0.0,0,0.0,0.0,0.0,0,0.0,0.0,0.0,0,0.0,0.0,0.0,0,0.0,0.0,0.0,2.0,15.0,2853823.582,0.0,1500.0
1372687280892313940,1453,1372687280896517408,1,1,1,1,3.1,2.5,2.1,3.3,-0.184,-0.5134,0.0556,-0.0111,0.0,0.0,0.0,0.0,0.0,0.0,0.0,0.0,-0.3198,-0.6704,-0.176,1,-0.3198,-0.6704,-0.176,1,0.0,0.0,0.0,0,0.0,0.0,0.0,0,0.0,0.0,0.0,2.1,15.0,2853823.582,0.0,1500.0
1372687281222358558,1454,1372687281224586621,1,1,1,1,3.5,3.0,2.1,3.2,-0.0745,-0.0874,0.0858,-0.018,0.0,0.0,0.0,0.0,0.0,0.0,0.0,0.0,0.0,0.0,0.0,0,0.0,0.0,0.0,0,0.0,0.0,0.0,0,0.0,0.0,0.0,0,0.0,0.0,0.0,2.1,15.0,2853823.582,0.0,1500.0
1372687281562211988,1455,1372687281571479798,1,1,1,1,3.5,3.0,2.1,3.2,-0.1848,-0.0137,-0.1137,-0.0201,0.0,0.0,0.0,0.0,0.0,0.0,0.0,0.0,-0.0949,0.0085,-0.0896,1,-0.0949,0.0085,-0.0896,1,0.0,0.0,0.0,0,0.0,0.0,0.0,0,0.0,0.0,0.0,2.1,15.0,2853823.582,0.0,1500.0
1372687281920596461,1456,1372687281920915986,1,1,1,1,3.5,2.0,2.2,3.2,-0.0919,-0.0272,0.0635,-0.0163,0.0,0.0,0.0,0.0,0.0,0.0,0.0,0.0,-0.2074,-0.0145,-0.0194,1,-0.2074,-0.0145,-0.0194,1,0.0,0.0,0.0,0,0.0,0.0,0.0,0,0.0,0.0,0.0,2.0,15.0,2853823.582,0.0,1500.0
1372687282272835971,1457,1372687282274989899,1,1,1,1,3.5,2.1,2.2,3.2,0.2976,-0.0442,0.0791,-0.0228,0.0,0.0,0.0,0.0,0.0,0.0,0.0,0.0,0.2916,-0.0286,0.0835,1,0.2916,-0.0286,0.0835,1,0.0,0.0,0.0,0,0.0,0.0,0.0,0,0.0,0.0,0.0,2.1,15.0,2853823.582,0.0,1500.0
1372687282620022294,1458,1372687282624039300,1,1,1,1,3.5,2.2,2.3,3.2,-0.1386,-0.0327,0.0371,-0.0152,0.0,0.0,0.0,0.0,0.0,0.0,0.0,0.0,-0.2345,-0.0234,-0.0403,1,-0.2345,-0.0234,-0.0403,1,0.0,0.0,0.0,0,0.0,0.0,0.0,0,0.0,0.0,0.0,2.2,15.0,2853823.582,0.0,1500.0
1372687282951307195,1459,1372687282952611299,1,1,1,1,3.5,2.4,2.5,3.2,-0.116,0.192,0.0578,-0.1084,0.0,0.0,0.0,0.0,0.0,0.0,0.0,0.0,0.0,0.0,0.0,0,0.0,0.0,0.0,0,0.0,0.0,0.0,0,0.0,0.0,0.0,0,0.0,0.0,0.0,2.4,15.0,2853823.582,0.0,1500.0
1372687283311981590,1460,1372687283314122195,1,1,1,1,3.5,2.4,2.5,3.2,-0.1248,-0.0381,0.0696,-0.1631,0.0,0.0,0.0,0.0,0.0,0.0,0.0,0.0,-0.2595,0.1668,-0.0692,1,-0.2595,0.1668,-0.0692,1,0.0,0.0,0.0,0,0.0,0.0,0.0,0,0.0,0.0,0.0,2.4,15.0,2853823.582,0.0,1500.0
1372687283662416833,1461,1372687283663706125,1,1,1,1,3.4,2.6,2.6,3.2,-0.1184,-0.0392,0.0725,-0.0288,0.0,0.0,0.0,0.0,0.0,0.0,0.0,0.0,-0.2548,-0.0139,-0.0308,1,-0.2548,-0.0139,-0.0308,1,0.0,0.0,0.0,0,0.0,0.0,0.0,0,0.0,0.0,0.0,2.6,15.0,2853823.582,0.0,1500.0
1372687284032552753,1462,1372687284037230702,0,1,1,1,0.0,2.7,2.6,3.2,0.0,-0.0757,0.0732,-0.0104,0.596,0.0,0.0,0.0,2.0,0.0,0.0,0.0,-0.3103,-0.0872,-0.0464,1,-0.3103,-0.0872,-0.0464,1,0.0,0.0,0.0,0,0.0,0.0,0.0,0,0.0,0.0,0.0,2.6,15.0,2853823.582,0.0,1500.0
1372687284362201202,1463,1372687284361987363,1,1,1,1,3.3,2.9,3.1,3.1,-0.04,-0.0189,0.0079,-0.0084,0.0,0.0,0.0,0.0,0.0,0.0,0.0,0.0,0.0,0.0,0.0,0,0.0,0.0,0.0,0,0.0,0.0,0.0,0,0.0,0.0,0.0,0,0.0,0.0,0.0,2.9,15.0,2853823.582,0.0,1500.0
1372687284710307815,1464,1372687284714771599,1,1,1,1,3.4,2.8,3.1,3.0,-0.0954,-0.0207,0.0901,-0.0503,0.0,0.0,0.0,0.0,0.0,0.0,0.0,0.0,-0.2476,0.0395,-0.0206,1,-0.2476,0.0395,-0.0206,1,0.0,0.0,0.0,0,0.0,0.0,0.0,0,0.0,0.0,0.0,2.8,15.0,2853823.582,0.0,1500.0
1372687285039452449,1465,1372687285039441307,1,1,1,1,3.5,2.8,3.1,3.1,-0.2396,-0.052,0.1002,-0.0196,0.0,0.0,0.0,0.0,0.0,0.0,0.0,0.0,0.0,0.0,0.0,0,0.0,0.0,0.0,0,0.0,0.0,0.0,0,0.0,0.0,0.0,0,0.0,0.0,0.0,2.8,15.0,2853823.582,0.0,1500.0
1372687285389862791,1466,1372687285393944614,1,1,1,1,3.4,2.8,3.1,3.1,-0.1477,-0.0286,0.116,-0.0483,0.0,0.0,0.0,0.0,0.0,0.0,0.0,0.0,-0.3519,0.0263,-0.0293,1,-0.3519,0.0263,-0.0293,1,0.0,0.0,0.0,0,0.0,0.0,0.0,0,0.0,0.0,0.0,2.8,15.0,2853823.582,0.0,1500.0
1372687285740691262,1467,1372687285748431944,1,1,1,1,3.3,3.0,3.1,3.1,-0.1115,-0.0558,0.0966,-0.0227,0.0,0.0,0.0,0.0,0.0,0.0,0.0,0.0,-0.2777,-0.0442,-0.0252,1,-0.2777,-0.0442,-0.0252,1,0.0,0.0,0.0,0,0.0,0.0,0.0,0,0.0,0.0,0.0,3.0,15.0,2853823.582,0.0,1500.0
1372687286100423161,1468,1372687286103541260,1,1,1,1,3.3,3.1,3.1,3.1,-0.1307,-0.0638,0.0868,-0.0101,0.0,0.0,0.0,0.0,0.0,0.0,0.0,0.0,-0.2903,-0.0717,-0.0318,1,-0.2903,-0.0717,-0.0318,1,0.0,0.0,0.0,0,0.0,0.0,0.0,0,0.0,0.0,0.0,3.1,15.0,2853823.582,0.0,1500.0
1372687286452927545,1469,1372687286459868903,1,1,1,1,3.4,2.9,3.1,3.1,-0.2571,-0.026,0.0912,-0.0277,0.0,0.0,0.0,0.0,0.0,0.0,0.0,0.0,-0.4649,0.0023,-0.0593,1,-0.4649,0.0023,-0.0593,1,0.0,0.0,0.0,0,0.0,0.0,0.0,0,0.0,0.0,0.0,2.9,15.0,2853823.582,0.0,1500.0
1372687286786976079,1470,1372687286786806354,1,1,1,1,3.4,2.9,3.1,3.1,-0.0999,-0.0044,0.1004,-0.0132,0.0,0.0,0.0,0.0,0.0,0.0,0.0,0.0,0.0,0.0,0.0,0,0.0,0.0,0.0,0,0.0,0.0,0.0,0,0.0,0.0,0.0,0,0.0,0.0,0.0,2.9,15.0,2853823.582,0.0,1500.0
1372687287144992130,1471,1372687287144359149,1,1,1,1,3.5,3.0,3.1,3.1,-0.1029,-0.0888,0.0916,-0.0109,0.0,0.0,0.0,0.0,0.0,0.0,0.0,0.0,-0.2596,-0.104,-0.03,1,-0.2596,-0.104,-0.03,1,0.0,0.0,0.0,0,0.0,0.0,0.0,0,0.0,0.0,0.0,3.0,15.0,2853823.582,0.0,1500.0
1372687287497467456,1472,1372687287497988391,1,1,1,1,4.1,3.0,3.2,3.1,-0.2083,-0.0016,0.1009,-0.0223,0.0,0.0,0.0,0.0,0.0,0.0,0.0,0.0,-0.4127,0.0276,-0.0354,1,-0.4127,0.0276,-0.0354,1,0.0,0.0,0.0,0,0.0,0.0,0.0,0,0.0,0.0,0.0,3.0,15.0,2853823.582,0.0,1500.0
1372687287845585150,1473,1372687287852098274,1,1,1,1,4.0,3.4,3.2,3.2,-0.146,0.0122,0.0418,-0.0138,0.0,0.0,0.0,0.0,0.0,0.0,0.0,0.0,-0.2506,0.0347,-0.0286,1,-0.2506,0.0347,-0.0286,1,0.0,0.0,0.0,0,0.0,0.0,0.0,0,0.0,0.0,0.0,3.2,15.0,2853823.582,0.0,1500.0
1372687288203793264,1474,1372687288211726649,1,1,1,1,4.1,3.4,3.2,3.1,-0.1896,-0.1771,0.0833,-0.0191,0.0,0.0,0.0,0.0,0.0,0.0,0.0,0.0,-0.3642,-0.2109,-0.0816,1,-0.3642,-0.2109,-0.0816,1,0.0,0.0,0.0,0,0.0,0.0,0.0,0,0.0,0.0,0.0,3.1,15.0,2853823.582,0.0,1500.0
1372687288563387591,1475,1372687288562895991,1,1,1,1,3.9,3.4,3.2,3.1,-0.215,-0.0424,0.0732,-0.0133,0.0,0.0,0.0,0.0,0.0,0.0,0.0,0.0,-0.3846,-0.0388,-0.0533,1,-0.3846,-0.0388,-0.0533,1,0.0,0.0,0.0,0,0.0,0.0,0.0,0,0.0,0.0,0.0,3.1,15.0,2853823.582,0.0,1500.0
1372687288912879667,1476,1372687288919185589,1,1,1,1,3.9,3.4,3.3,3.1,-0.0563,0.0338,0.1039,-0.0205,0.0,0.0,0.0,0.0,0.0,0.0,0.0,0.0,-0.2138,0.0725,0.0164,1,-0.2138,0.0725,0.0164,1,0.0,0.0,0.0,0,0.0,0.0,0.0,0,0.0,0.0,0.0,3.1,15.0,2853823.582,0.0,1500.0
1372687289273987733,1477,1372687289272882371,1,1,1,1,3.8,3.0,3.3,3.1,-0.058,0.1603,0.122,-0.0768,0.0,0.0,0.0,0.0,0.0,0.0,0.0,0.0,-0.2402,0.3164,0.0397,1,-0.2402,0.3164,0.0397,1,0.0,0.0,0.0,0,0.0,0.0,0.0,0,0.0,0.0,0.0,3.0,15.0,2853823.582,0.0,1500.0
1372687289626845581,1478,1372687289630312010,1,1,1,1,3.8,2.9,3.2,3.2,-0.1337,-0.0524,0.1187,-0.0144,0.0,0.0,0.0,0.0,0.0,0.0,0.0,0.0,-0.3369,-0.0507,-0.0221,1,-0.3369,-0.0507,-0.0221,1,0.0,0.0,0.0,0,0.0,0.0,0.0,0,0.0,0.0,0.0,2.9,15.0,2853823.582,0.0,1500.0
1372687289978361920,1479,1372687289983557714,1,1,1,1,3.8,2.8,3.2,3.2,-0.1487,-0.0087,0.0515,-0.0012,0.0,0.0,0.0,0.0,0.0,0.0,0.0,0.0,-0.2672,-0.01,-0.0289,1,-0.2672,-0.01,-0.0289,1,0.0,0.0,0.0,0,0.0,0.0,0.0,0,0.0,0.0,0.0,2.8,15.0,2853823.582,0.0,1500.0
1372687290332314488,1480,1372687290334878175,1,1,1,1,3.8,2.9,3.2,3.2,-0.1447,-0.017,0.0857,-0.0057,0.0,0.0,0.0,0.0,0.0,0.0,0.0,0.0,-0.3075,-0.0151,-0.022,1,-0.3075,-0.0151,-0.022,1,0.0,0.0,0.0,0,0.0,0.0,0.0,0,0.0,0.0,0.0,2.9,15.0,2853823.582,0.0,1500.0
1372687290690598637,1481,1372687290692931649,1,1,1,1,4.1,2.9,3.2,3.2,-0.0719,-0.0555,0.1106,-0.0066,0.0,0.0,0.0,0.0,0.0,0.0,0.0,0.0,-0.2436,-0.0653,-0.0063,1,-0.2436,-0.0653,-0.0063,1,0.0,0.0,0.0,0,0.0,0.0,0.0,0,0.0,0.0,0.0,2.9,15.0,2853823.582,0.0,1500.0
